[
  {
    "id": "B024F06057",
    "name": "旗山万佛寺-石松古殿",
    "type": "ScenicSpot",
    "typecode": "110205",
    "province": "福建省",
    "city": "福州市",
    "district": "闽侯县",
    "address": "南屿镇117县道西侧旗山万佛寺(西北角)",
    "lng": 119.211096,
    "lat": 25.99132,
    "tel": "0591-22815043"
  },
  {
    "id": "B024F01ABD",
    "name": "灵石寺",
    "type": "ScenicSpot",
    "typecode": "110205",
    "province": "福建省",
    "city": "福州市",
    "district": "福清市",
    "address": "东张镇灵石村",
    "lng": 119.222804,
    "lat": 25.663982,
    "tel": "0591-85398337"
  },
  {
    "id": "B0FFINM9O0",
    "name": "长乐洋屿云门寺",
    "type": "ScenicSpot",
    "typecode": "110205",
    "province": "福建省",
    "city": "福州市",
    "district": "长乐区",
    "address": "航城街道洋屿村",
    "lng": 119.5051,
    "lat": 26.003627,
    "tel": "[]"
  },
  {
    "id": "B0FFGLLQ45",
    "name": "新四军驻办事处旧址",
    "type": "ScenicSpot",
    "typecode": "110000",
    "province": "福建省",
    "city": "福州市",
    "district": "鼓楼区",
    "address": "安民巷53号(东街口地铁站C口步行400米)",
    "lng": 119.29846,
    "lat": 26.08245,
    "tel": "0591-83890057"
  },
  {
    "id": "B0FFHHIEXS",
    "name": "连江台山广福寺",
    "type": "ScenicSpot",
    "typecode": "110205",
    "province": "福建省",
    "city": "福州市",
    "district": "连江县",
    "address": "潘渡镇陀市村160号",
    "lng": 119.458357,
    "lat": 26.25903,
    "tel": "[]"
  },
  {
    "id": "B0FFHGWS3W",
    "name": "罗源飞竹西洋宫",
    "type": "ScenicSpot",
    "typecode": "110000",
    "province": "福建省",
    "city": "福州市",
    "district": "罗源县",
    "address": "飞竹镇西洋坡",
    "lng": 119.334464,
    "lat": 26.451697,
    "tel": "[]"
  },
  {
    "id": "B0FFG8W9L1",
    "name": "宝林禅寺",
    "type": "ScenicSpot",
    "typecode": "110205",
    "province": "福建省",
    "city": "福州市",
    "district": "连江县",
    "address": "丹阳镇大溪凤岭山宝林里",
    "lng": 119.456087,
    "lat": 26.381679,
    "tel": "18659158683;0591-26559271"
  },
  {
    "id": "B024F05NI9",
    "name": "葫芦山普济寺",
    "type": "ScenicSpot",
    "typecode": "110205",
    "province": "福建省",
    "city": "福州市",
    "district": "长乐区",
    "address": "西关葫芦山",
    "lng": 119.518934,
    "lat": 25.965828,
    "tel": "0591-28930126"
  },
  {
    "id": "B024F05NC5",
    "name": "溪滨公园",
    "type": "ScenicSpot",
    "typecode": "110101",
    "province": "福建省",
    "city": "福州市",
    "district": "闽清县",
    "address": "坂新村162号",
    "lng": 118.867394,
    "lat": 26.225328,
    "tel": "[]"
  },
  {
    "id": "B024F0U9PT",
    "name": "基督教福音堂",
    "type": "ScenicSpot",
    "typecode": "110206",
    "province": "福建省",
    "city": "福州市",
    "district": "平潭县",
    "address": "新府口庄3号",
    "lng": 119.783308,
    "lat": 25.508568,
    "tel": "[]"
  },
  {
    "id": "B0FFHUBUBL",
    "name": "福建省长乐区潭头镇德成岩禅寺",
    "type": "ScenicSpot",
    "typecode": "110205",
    "province": "福建省",
    "city": "福州市",
    "district": "长乐区",
    "address": "猴屿洞天岩",
    "lng": 119.572525,
    "lat": 26.035551,
    "tel": "0591-28966557"
  },
  {
    "id": "B024F01AA2",
    "name": "鳌峰岩寺",
    "type": "ScenicSpot",
    "typecode": "110205",
    "province": "福建省",
    "city": "福州市",
    "district": "长乐区",
    "address": "潭头镇泽里村泽里567号",
    "lng": 119.590401,
    "lat": 26.040155,
    "tel": "[]"
  },
  {
    "id": "B024F0WFWU",
    "name": "三坊七巷-邓拓故居",
    "type": "ScenicSpot",
    "typecode": "110200",
    "province": "福建省",
    "city": "福州市",
    "district": "鼓楼区",
    "address": "道山路第一山4号(南门兜地铁站B西口步行290米)",
    "lng": 119.300133,
    "lat": 26.077479,
    "tel": "0591-87503954"
  },
  {
    "id": "B0FFH98LDR",
    "name": "连江云深寺",
    "type": "ScenicSpot",
    "typecode": "110205",
    "province": "福建省",
    "city": "福州市",
    "district": "连江县",
    "address": "敖江镇长汀村",
    "lng": 119.496379,
    "lat": 26.213944,
    "tel": "13515023220"
  },
  {
    "id": "B024F0UDTS",
    "name": "百凤公园",
    "type": "ScenicSpot",
    "typecode": "110101",
    "province": "福建省",
    "city": "福州市",
    "district": "连江县",
    "address": "百福路127号",
    "lng": 119.544545,
    "lat": 26.200964,
    "tel": "[]"
  },
  {
    "id": "B024F05YDF",
    "name": "灵峰寺",
    "type": "ScenicSpot",
    "typecode": "110205",
    "province": "福建省",
    "city": "福州市",
    "district": "晋安区",
    "address": "1531省道机场高速辅路",
    "lng": 119.346043,
    "lat": 26.107863,
    "tel": "[]"
  },
  {
    "id": "B0FFGCE0I4",
    "name": "妙峰山妙峰禅寺",
    "type": "ScenicSpot",
    "typecode": "110205",
    "province": "福建省",
    "city": "福州市",
    "district": "仓山区",
    "address": "妙峰路",
    "lng": 119.240825,
    "lat": 26.074219,
    "tel": "[]"
  },
  {
    "id": "B0FFFCM1J8",
    "name": "街心公园",
    "type": "ScenicSpot",
    "typecode": "110101",
    "province": "福建省",
    "city": "福州市",
    "district": "闽侯县",
    "address": "街心路171号",
    "lng": 119.135828,
    "lat": 26.149779,
    "tel": "[]"
  },
  {
    "id": "B024F05ZK9",
    "name": "闽侯县南通古灵庙管委会",
    "type": "ScenicSpot",
    "typecode": "110200",
    "province": "福建省",
    "city": "福州市",
    "district": "闽侯县",
    "address": "南通镇南通古灵庙管委会",
    "lng": 119.232917,
    "lat": 25.904381,
    "tel": "[]"
  },
  {
    "id": "B0FFHPZEX0",
    "name": "连江官坂峡山寺",
    "type": "ScenicSpot",
    "typecode": "110205",
    "province": "福建省",
    "city": "福州市",
    "district": "连江县",
    "address": "官坂镇官坂村",
    "lng": 119.673584,
    "lat": 26.299757,
    "tel": "0591-26382638"
  },
  {
    "id": "B024F032F7",
    "name": "古迹白泉庵",
    "type": "ScenicSpot",
    "typecode": "110205",
    "province": "福建省",
    "city": "福州市",
    "district": "仓山区",
    "address": "李厝山路",
    "lng": 119.302604,
    "lat": 26.031175,
    "tel": "[]"
  },
  {
    "id": "B0FFH6KR8O",
    "name": "上洲公园",
    "type": "ScenicSpot",
    "typecode": "110101",
    "province": "福建省",
    "city": "福州市",
    "district": "闽侯县",
    "address": "国上线东南侧",
    "lng": 119.248192,
    "lat": 25.940936,
    "tel": "[]"
  },
  {
    "id": "B0FFG21HIC",
    "name": "灵峰寺",
    "type": "ScenicSpot",
    "typecode": "110205",
    "province": "福建省",
    "city": "福州市",
    "district": "闽侯县",
    "address": "后山村",
    "lng": 119.120118,
    "lat": 26.166588,
    "tel": "[]"
  },
  {
    "id": "B024F0UGKE",
    "name": "岭山寺",
    "type": "ScenicSpot",
    "typecode": "110205",
    "province": "福建省",
    "city": "福州市",
    "district": "闽侯县",
    "address": "甘蔗镇陈店湖工业区",
    "lng": 119.13256,
    "lat": 26.161629,
    "tel": "[]"
  },
  {
    "id": "B024F014E7",
    "name": "龙角峰寺",
    "type": "ScenicSpot",
    "typecode": "110205",
    "province": "福建省",
    "city": "福州市",
    "district": "长乐区",
    "address": "[]",
    "lng": 119.630898,
    "lat": 25.934029,
    "tel": "[]"
  },
  {
    "id": "B024F00E0D",
    "name": "唐氏宗祠",
    "type": "ScenicSpot",
    "typecode": "110205",
    "province": "福建省",
    "city": "福州市",
    "district": "闽侯县",
    "address": "南屿镇尧沙村月山531号",
    "lng": 119.238233,
    "lat": 25.951114,
    "tel": "[]"
  },
  {
    "id": "B024F05ACX",
    "name": "马江海战纪念馆",
    "type": "ScenicSpot",
    "typecode": "110204",
    "province": "福建省",
    "city": "福州市",
    "district": "马尾区",
    "address": "马尾镇昭忠路号",
    "lng": 119.451786,
    "lat": 25.984263,
    "tel": "0591-83682339"
  },
  {
    "id": "B024F01A96",
    "name": "长门炮台",
    "type": "ScenicSpot",
    "typecode": "110200",
    "province": "福建省",
    "city": "福州市",
    "district": "连江县",
    "address": "福州绕城高速附近",
    "lng": 119.598601,
    "lat": 26.13613,
    "tel": "[]"
  },
  {
    "id": "B0FFJ0ERXG",
    "name": "百胜广场",
    "type": "ScenicSpot",
    "typecode": "110105",
    "province": "福建省",
    "city": "福州市",
    "district": "连江县",
    "address": "晓澳镇百胜村",
    "lng": 119.662944,
    "lat": 26.238641,
    "tel": "[]"
  },
  {
    "id": "B0FFIWRCN3",
    "name": "四面佛",
    "type": "ScenicSpot",
    "typecode": "110000",
    "province": "福建省",
    "city": "福州市",
    "district": "鼓楼区",
    "address": "开元路78号开元寺内平房",
    "lng": 119.301181,
    "lat": 26.090706,
    "tel": "0591-87502204"
  },
  {
    "id": "B0FFHR7LG0",
    "name": "江滨公园",
    "type": "ScenicSpot",
    "typecode": "110101",
    "province": "福建省",
    "city": "福州市",
    "district": "永泰县",
    "address": "塔山路与南滨路交叉口西北440米",
    "lng": 118.94768,
    "lat": 25.863246,
    "tel": "[]"
  },
  {
    "id": "B0FFHNSNSO",
    "name": "福州城门道教三清观",
    "type": "ScenicSpot",
    "typecode": "110205",
    "province": "福建省",
    "city": "福州市",
    "district": "仓山区",
    "address": "城门镇城门村城楼444号",
    "lng": 119.362883,
    "lat": 25.997784,
    "tel": "[]"
  },
  {
    "id": "B0FFHN3TJ5",
    "name": "龙洋寺",
    "type": "ScenicSpot",
    "typecode": "110205",
    "province": "福建省",
    "city": "福州市",
    "district": "闽侯县",
    "address": "194县道旁边",
    "lng": 119.049202,
    "lat": 26.320181,
    "tel": "[]"
  },
  {
    "id": "B0FFHMXAJB",
    "name": "真武殿",
    "type": "ScenicSpot",
    "typecode": "110205",
    "province": "福建省",
    "city": "福州市",
    "district": "晋安区",
    "address": "战坂路与岭下路交叉口西北200米",
    "lng": 119.328283,
    "lat": 26.147633,
    "tel": "[]"
  },
  {
    "id": "B0FFHF53GT",
    "name": "福清云峰寺",
    "type": "ScenicSpot",
    "typecode": "110205",
    "province": "福建省",
    "city": "福州市",
    "district": "福清市",
    "address": "龙田镇积库村",
    "lng": 119.436641,
    "lat": 25.603077,
    "tel": "[]"
  },
  {
    "id": "B0FFH9UEXD",
    "name": "长乐琅峰泗洲文佛寺(雪峰下院)",
    "type": "ScenicSpot",
    "typecode": "110205",
    "province": "福建省",
    "city": "福州市",
    "district": "长乐区",
    "address": "玉田镇琅峰村直街路1号",
    "lng": 119.4658,
    "lat": 25.905731,
    "tel": "13799969015"
  },
  {
    "id": "B0FFH9AW9H",
    "name": "薛港公园",
    "type": "ScenicSpot",
    "typecode": "110101",
    "province": "福建省",
    "city": "福州市",
    "district": "福清市",
    "address": "305省道",
    "lng": 119.54169,
    "lat": 25.497372,
    "tel": "[]"
  },
  {
    "id": "B0FFG9FJCG",
    "name": "玉皇宫文化园",
    "type": "ScenicSpot",
    "typecode": "110205",
    "province": "福建省",
    "city": "福州市",
    "district": "仓山区",
    "address": "城门镇黄山村西街2-1",
    "lng": 119.350522,
    "lat": 26.007062,
    "tel": "18960744999"
  },
  {
    "id": "B0FFFGM88F",
    "name": "福州市鼓山风景名胜区管委会",
    "type": "ScenicSpot",
    "typecode": "110200",
    "province": "福建省",
    "city": "福州市",
    "district": "晋安区",
    "address": "福马路1027号福州市鼓山旅游景区内(东侧)",
    "lng": 119.394744,
    "lat": 26.051551,
    "tel": "[]"
  },
  {
    "id": "B0FFF4J9SZ",
    "name": "闽江公园南园-玉皇大帝庙",
    "type": "ScenicSpot",
    "typecode": "110205",
    "province": "福建省",
    "city": "福州市",
    "district": "仓山区",
    "address": "闽江公园南园(西北角)",
    "lng": 119.260084,
    "lat": 26.065281,
    "tel": "0591-83895376"
  },
  {
    "id": "B024F0WGM0",
    "name": "龙湖公园",
    "type": "ScenicSpot",
    "typecode": "110101",
    "province": "福建省",
    "city": "福州市",
    "district": "福清市",
    "address": "港头镇草柄村",
    "lng": 119.476372,
    "lat": 25.557164,
    "tel": "[]"
  },
  {
    "id": "B024F0UDNC",
    "name": "莲湖公园",
    "type": "ScenicSpot",
    "typecode": "110101",
    "province": "福建省",
    "city": "福州市",
    "district": "连江县",
    "address": "西凤路与玉荷西路交汇处附近",
    "lng": 119.529573,
    "lat": 26.196324,
    "tel": "[]"
  },
  {
    "id": "B024F0UDBC",
    "name": "乃裳广场",
    "type": "ScenicSpot",
    "typecode": "110105",
    "province": "福建省",
    "city": "福州市",
    "district": "闽清县",
    "address": "解放大街142号",
    "lng": 118.863515,
    "lat": 26.220562,
    "tel": "[]"
  },
  {
    "id": "B024F0U9ZG",
    "name": "河滨公园",
    "type": "ScenicSpot",
    "typecode": "110101",
    "province": "福建省",
    "city": "福州市",
    "district": "长乐区",
    "address": "河下街50(十洋地铁站A东北口步行350米)",
    "lng": 119.516882,
    "lat": 25.959892,
    "tel": "[]"
  },
  {
    "id": "B024F05OST",
    "name": "普陀寺",
    "type": "ScenicSpot",
    "typecode": "110205",
    "province": "福建省",
    "city": "福州市",
    "district": "长乐区",
    "address": "普陀寺(201省道北)",
    "lng": 119.579125,
    "lat": 26.044886,
    "tel": "[]"
  },
  {
    "id": "B024F05NIJ",
    "name": "天后宫",
    "type": "ScenicSpot",
    "typecode": "110205",
    "province": "福建省",
    "city": "福州市",
    "district": "福清市",
    "address": "龙山街道利桥街与瑞云路交叉口西50米",
    "lng": 119.385296,
    "lat": 25.712908,
    "tel": "[]"
  },
  {
    "id": "B024F05D51",
    "name": "圣来寺",
    "type": "ScenicSpot",
    "typecode": "110205",
    "province": "福建省",
    "city": "福州市",
    "district": "福清市",
    "address": "宏路街道宏路新街",
    "lng": 119.31636,
    "lat": 25.697216,
    "tel": "[]"
  },
  {
    "id": "B024F05BOD",
    "name": "林氏宗祠(苍霞)",
    "type": "ScenicSpot",
    "typecode": "110205",
    "province": "福建省",
    "city": "福州市",
    "district": "福清市",
    "address": "龙江路滨海嘉苑南侧约200米",
    "lng": 119.389832,
    "lat": 25.68001,
    "tel": "[]"
  },
  {
    "id": "B024F056Y4",
    "name": "灵隐寺",
    "type": "ScenicSpot",
    "typecode": "110205",
    "province": "福建省",
    "city": "福州市",
    "district": "闽侯县",
    "address": "灵隐路东50米",
    "lng": 119.241825,
    "lat": 25.901618,
    "tel": "[]"
  },
  {
    "id": "B024F04VMF",
    "name": "观巷基督教堂",
    "type": "ScenicSpot",
    "typecode": "110206",
    "province": "福建省",
    "city": "福州市",
    "district": "鼓楼区",
    "address": "观巷9号",
    "lng": 119.306822,
    "lat": 26.080397,
    "tel": "[]"
  },
  {
    "id": "B024F01A7F",
    "name": "隐峰禅寺",
    "type": "ScenicSpot",
    "typecode": "110205",
    "province": "福建省",
    "city": "福州市",
    "district": "罗源县",
    "address": "白塔乡应德村",
    "lng": 119.475406,
    "lat": 26.430911,
    "tel": "[]"
  },
  {
    "id": "B024F014F3",
    "name": "显应宫礼堂",
    "type": "ScenicSpot",
    "typecode": "110205|140000",
    "province": "福建省",
    "city": "福州市",
    "district": "长乐区",
    "address": "漳港镇仙岐村",
    "lng": 119.64972,
    "lat": 25.917258,
    "tel": "0591-28623230"
  },
  {
    "id": "B0FFHYGXYD",
    "name": "东湖境五显庙",
    "type": "ScenicSpot",
    "typecode": "110205",
    "province": "福建省",
    "city": "福州市",
    "district": "福清市",
    "address": "玉塘路西南侧",
    "lng": 119.393455,
    "lat": 25.705908,
    "tel": "[]"
  },
  {
    "id": "B024F05NWM",
    "name": "马尾基督教堂",
    "type": "ScenicSpot",
    "typecode": "110206",
    "province": "福建省",
    "city": "福州市",
    "district": "马尾区",
    "address": "马尾镇江滨东大道212号",
    "lng": 119.445677,
    "lat": 25.991796,
    "tel": "[]"
  },
  {
    "id": "B024F057HA",
    "name": "齐天大圣",
    "type": "ScenicSpot",
    "typecode": "110205",
    "province": "福建省",
    "city": "福州市",
    "district": "福清市",
    "address": "玉塘路与瑞塘路交叉口东南120米",
    "lng": 119.395044,
    "lat": 25.705291,
    "tel": "[]"
  },
  {
    "id": "B0FFG0HTUD",
    "name": "晨曦广场",
    "type": "ScenicSpot",
    "typecode": "110105",
    "province": "福建省",
    "city": "福州市",
    "district": "鼓楼区",
    "address": "湖滨路113附近",
    "lng": 119.292667,
    "lat": 26.091978,
    "tel": "0591-83783655"
  },
  {
    "id": "B0FFJMIOTG",
    "name": "江田镇石门村法源寺",
    "type": "ScenicSpot",
    "typecode": "110205",
    "province": "福建省",
    "city": "福州市",
    "district": "长乐区",
    "address": "鸡角尾附近",
    "lng": 119.560944,
    "lat": 25.819456,
    "tel": "[]"
  },
  {
    "id": "B024F04WYI",
    "name": "万寿头陀寺",
    "type": "ScenicSpot",
    "typecode": "110205",
    "province": "福建省",
    "city": "福州市",
    "district": "仓山区",
    "address": "仓前路311号",
    "lng": 119.30767,
    "lat": 26.043104,
    "tel": "[]"
  },
  {
    "id": "B0FFITZ7HF",
    "name": "三益观禅寺",
    "type": "ScenicSpot",
    "typecode": "110205",
    "province": "福建省",
    "city": "福州市",
    "district": "闽侯县",
    "address": "[]",
    "lng": 119.099754,
    "lat": 26.176548,
    "tel": "18059109967"
  },
  {
    "id": "B0FFI67BJ0",
    "name": "高氏文昌阁",
    "type": "ScenicSpot",
    "typecode": "110000",
    "province": "福建省",
    "city": "福州市",
    "district": "台江区",
    "address": "星河巷星安桥路82号上下杭历史文化街区(西北角)",
    "lng": 119.303747,
    "lat": 26.052756,
    "tel": "0591-83219581"
  },
  {
    "id": "B024F05NIA",
    "name": "天王寺",
    "type": "ScenicSpot",
    "typecode": "110205",
    "province": "福建省",
    "city": "福州市",
    "district": "长乐区",
    "address": "吴航街道西关街233号",
    "lng": 119.520347,
    "lat": 25.97181,
    "tel": "[]"
  },
  {
    "id": "B0FFGF2RUN",
    "name": "马头石公园",
    "type": "ScenicSpot",
    "typecode": "110101",
    "province": "福建省",
    "city": "福州市",
    "district": "连江县",
    "address": "马鼻玉井村",
    "lng": 119.67048,
    "lat": 26.376798,
    "tel": "[]"
  },
  {
    "id": "B024F0WGD1",
    "name": "马限山公园",
    "type": "ScenicSpot",
    "typecode": "110101",
    "province": "福建省",
    "city": "福州市",
    "district": "马尾区",
    "address": "马尾镇联安路142号中国船政文化景区",
    "lng": 119.451313,
    "lat": 25.98378,
    "tel": "0591-83984103"
  },
  {
    "id": "B0FFFXKCZU",
    "name": "升山寺",
    "type": "ScenicSpot",
    "typecode": "110205",
    "province": "福建省",
    "city": "福州市",
    "district": "晋安区",
    "address": "新店镇赤星村附近",
    "lng": 119.273119,
    "lat": 26.143476,
    "tel": "13850154456"
  },
  {
    "id": "B024F0WGHF",
    "name": "超山禅寺",
    "type": "ScenicSpot",
    "typecode": "110205",
    "province": "福建省",
    "city": "福州市",
    "district": "闽侯县",
    "address": "静心路与文贤路交叉口西320米",
    "lng": 119.164216,
    "lat": 26.067393,
    "tel": "[]"
  },
  {
    "id": "B024F0WGDX",
    "name": "福建都城隍庙",
    "type": "ScenicSpot",
    "typecode": "110205",
    "province": "福建省",
    "city": "福州市",
    "district": "鼓楼区",
    "address": "冶山路城隍街云步山巷8号(屏山地铁站D口步行220米)",
    "lng": 119.298229,
    "lat": 26.093654,
    "tel": "[]"
  },
  {
    "id": "B024F0WGBE",
    "name": "鳌峯书院",
    "type": "ScenicSpot",
    "typecode": "110000",
    "province": "福建省",
    "city": "福州市",
    "district": "鼓楼区",
    "address": "鳌峰坊37-1号",
    "lng": 119.307683,
    "lat": 26.080371,
    "tel": "[]"
  },
  {
    "id": "B024F0302X",
    "name": "法海寺",
    "type": "ScenicSpot",
    "typecode": "110205",
    "province": "福建省",
    "city": "福州市",
    "district": "鼓楼区",
    "address": "法海路1号(近格致中学)",
    "lng": 119.305613,
    "lat": 26.080077,
    "tel": "[]"
  },
  {
    "id": "B0FFHBNNE0",
    "name": "钟楼",
    "type": "ScenicSpot",
    "typecode": "110000",
    "province": "福建省",
    "city": "福州市",
    "district": "连江县",
    "address": "潘渡乡贵安新天地社区贵康路1号",
    "lng": 119.410865,
    "lat": 26.242792,
    "tel": "[]"
  },
  {
    "id": "B024F0WGJJ",
    "name": "竹林寺",
    "type": "ScenicSpot",
    "typecode": "110205",
    "province": "福建省",
    "city": "福州市",
    "district": "长乐区",
    "address": "[]",
    "lng": 119.531766,
    "lat": 25.876415,
    "tel": "[]"
  },
  {
    "id": "B024F0WFVM",
    "name": "阮公祠",
    "type": "ScenicSpot",
    "typecode": "110205",
    "province": "福建省",
    "city": "福州市",
    "district": "晋安区",
    "address": "鼓山镇福马路前屿村(前屿地铁站B西北口步行390米)",
    "lng": 119.348443,
    "lat": 26.072199,
    "tel": "[]"
  },
  {
    "id": "B024F0UG7W",
    "name": "闽侯县基督教甘蔗堂",
    "type": "ScenicSpot",
    "typecode": "110206",
    "province": "福建省",
    "city": "福州市",
    "district": "闽侯县",
    "address": "广元路与军民路交叉口西20米",
    "lng": 119.138427,
    "lat": 26.152186,
    "tel": "[]"
  },
  {
    "id": "B024F057AS",
    "name": "福清龙田吉水寺",
    "type": "ScenicSpot",
    "typecode": "110205",
    "province": "福建省",
    "city": "福州市",
    "district": "福清市",
    "address": "龙田镇上苍村",
    "lng": 119.386643,
    "lat": 25.635777,
    "tel": "[]"
  },
  {
    "id": "B024F056XN",
    "name": "九龙林氏支祠",
    "type": "ScenicSpot",
    "typecode": "110205",
    "province": "福建省",
    "city": "福州市",
    "district": "长乐区",
    "address": "首占镇塘屿村",
    "lng": 119.474907,
    "lat": 25.928658,
    "tel": "[]"
  },
  {
    "id": "B024F036YN",
    "name": "瑞云寺",
    "type": "ScenicSpot",
    "typecode": "110205",
    "province": "福建省",
    "city": "福州市",
    "district": "晋安区",
    "address": "象兴路与象园支路交叉口东100米",
    "lng": 119.326447,
    "lat": 26.06657,
    "tel": "[]"
  },
  {
    "id": "B0FFHSSH84",
    "name": "三相公祖殿",
    "type": "ScenicSpot",
    "typecode": "110205",
    "province": "福建省",
    "city": "福州市",
    "district": "仓山区",
    "address": "西三环路提统抚麻府三相公庙附近",
    "lng": 119.22624,
    "lat": 26.097111,
    "tel": "[]"
  },
  {
    "id": "B024F05O2W",
    "name": "福清茶亭西涧寺",
    "type": "ScenicSpot",
    "typecode": "110205",
    "province": "福建省",
    "city": "福州市",
    "district": "福清市",
    "address": "江滨路116号",
    "lng": 119.373783,
    "lat": 25.718064,
    "tel": "[]"
  },
  {
    "id": "B024F003AA",
    "name": "金牛山公园",
    "type": "ScenicSpot",
    "typecode": "110101",
    "province": "福建省",
    "city": "福州市",
    "district": "鼓楼区",
    "address": "西洪路598号",
    "lng": 119.261094,
    "lat": 26.077777,
    "tel": "[]"
  },
  {
    "id": "B0FFIZLG33",
    "name": "浦口镇保福寺",
    "type": "ScenicSpot",
    "typecode": "110205",
    "province": "福建省",
    "city": "福州市",
    "district": "连江县",
    "address": "浦口镇",
    "lng": 119.606169,
    "lat": 26.259093,
    "tel": "0591-26337367"
  },
  {
    "id": "B0FFHNA0EG",
    "name": "闽侯兴福禅寺",
    "type": "ScenicSpot",
    "typecode": "110205",
    "province": "福建省",
    "city": "福州市",
    "district": "闽侯县",
    "address": "辅大线与洋洲路交叉口西南300米",
    "lng": 119.34217,
    "lat": 25.898396,
    "tel": "[]"
  },
  {
    "id": "B0FFH96F8T",
    "name": "福州普光寺",
    "type": "ScenicSpot",
    "typecode": "110205",
    "province": "福建省",
    "city": "福州市",
    "district": "晋安区",
    "address": "宦溪镇降虎村瓦里12号",
    "lng": 119.3905,
    "lat": 26.208589,
    "tel": "15859094568"
  },
  {
    "id": "B0FFH8Q0OQ",
    "name": "石林古寺",
    "type": "ScenicSpot",
    "typecode": "110205",
    "province": "福建省",
    "city": "福州市",
    "district": "晋安区",
    "address": "西园路与西凤路交叉口东420米",
    "lng": 119.338937,
    "lat": 26.123902,
    "tel": "[]"
  },
  {
    "id": "B024F05VVY",
    "name": "望北台真武庙",
    "type": "ScenicSpot",
    "typecode": "110205",
    "province": "福建省",
    "city": "福州市",
    "district": "仓山区",
    "address": "上三路福建师范大学-附属小学",
    "lng": 119.304628,
    "lat": 26.041211,
    "tel": "[]"
  },
  {
    "id": "B024F00881",
    "name": "林则徐出生地",
    "type": "ScenicSpot",
    "typecode": "110204",
    "province": "福建省",
    "city": "福州市",
    "district": "鼓楼区",
    "address": "中山路19号",
    "lng": 119.301151,
    "lat": 26.094162,
    "tel": "0591-87810391"
  },
  {
    "id": "B0FFHRXV7C",
    "name": "凤林寺",
    "type": "ScenicSpot",
    "typecode": "110205",
    "province": "福建省",
    "city": "福州市",
    "district": "仓山区",
    "address": "建中小区斜对面",
    "lng": 119.255359,
    "lat": 26.03918,
    "tel": "[]"
  },
  {
    "id": "B0FFILBVAD",
    "name": "城隍庙",
    "type": "ScenicSpot",
    "typecode": "110205",
    "province": "福建省",
    "city": "福州市",
    "district": "长乐区",
    "address": "新民路24附近",
    "lng": 119.52399,
    "lat": 25.964405,
    "tel": "[]"
  },
  {
    "id": "B0FFIAB4TO",
    "name": "连江瑞岩寺",
    "type": "ScenicSpot",
    "typecode": "110205",
    "province": "福建省",
    "city": "福州市",
    "district": "连江县",
    "address": "蓼沿乡蓼沿村尾厝路66号",
    "lng": 119.446461,
    "lat": 26.357276,
    "tel": "[]"
  },
  {
    "id": "B0FFH5DBH0",
    "name": "芹岩寺",
    "type": "ScenicSpot",
    "typecode": "110205",
    "province": "福建省",
    "city": "福州市",
    "district": "闽侯县",
    "address": "洋里乡田垱村芹岩古寺333号",
    "lng": 118.978561,
    "lat": 26.299804,
    "tel": "[]"
  },
  {
    "id": "B024F032UL",
    "name": "荷泽寺",
    "type": "ScenicSpot",
    "typecode": "110205",
    "province": "福建省",
    "city": "福州市",
    "district": "台江区",
    "address": "西环中路673号附近",
    "lng": 119.288534,
    "lat": 26.066931,
    "tel": "[]"
  },
  {
    "id": "B024F0WG90",
    "name": "凤洋将军庙",
    "type": "ScenicSpot",
    "typecode": "110205",
    "province": "福建省",
    "city": "福州市",
    "district": "晋安区",
    "address": "远洋路附近",
    "lng": 119.362559,
    "lat": 26.057537,
    "tel": "[]"
  },
  {
    "id": "B024F014FA",
    "name": "祥谦陵园",
    "type": "ScenicSpot",
    "typecode": "110210",
    "province": "福建省",
    "city": "福州市",
    "district": "闽侯县",
    "address": "祥谦镇福厦公路东侧的枕峰山",
    "lng": 119.39086,
    "lat": 25.934589,
    "tel": "[]"
  },
  {
    "id": "B024F01R5Q",
    "name": "琅岐白云寺",
    "type": "ScenicSpot",
    "typecode": "110205",
    "province": "福建省",
    "city": "福州市",
    "district": "马尾区",
    "address": "琅岐劳团村附近白云山风景区",
    "lng": 119.6242,
    "lat": 26.084705,
    "tel": "[]"
  },
  {
    "id": "B0FFHP5YB0",
    "name": "后山临水宫",
    "type": "ScenicSpot",
    "typecode": "110200",
    "province": "福建省",
    "city": "福州市",
    "district": "仓山区",
    "address": "后坂路与高盛路交叉口西南160米",
    "lng": 119.343583,
    "lat": 26.024436,
    "tel": "[]"
  },
  {
    "id": "B024F0UBG8",
    "name": "王家庄公园",
    "type": "ScenicSpot",
    "typecode": "110101",
    "province": "福建省",
    "city": "福州市",
    "district": "连江县",
    "address": "凯旋公馆a区12号",
    "lng": 119.540862,
    "lat": 26.208875,
    "tel": "[]"
  },
  {
    "id": "B024F02ZIR",
    "name": "大觉禅寺",
    "type": "ScenicSpot",
    "typecode": "110205",
    "province": "福建省",
    "city": "福州市",
    "district": "鼓楼区",
    "address": "东街街道东泰路95号",
    "lng": 119.303329,
    "lat": 26.083765,
    "tel": "[]"
  },
  {
    "id": "B024F056MC",
    "name": "长乐地下党革命烈士纪念园",
    "type": "ScenicSpot",
    "typecode": "110204",
    "province": "福建省",
    "city": "福州市",
    "district": "长乐区",
    "address": "南阳线北150米",
    "lng": 119.560513,
    "lat": 25.767778,
    "tel": "[]"
  },
  {
    "id": "B0FFHNT9XT",
    "name": "上街丹屿庙",
    "type": "ScenicSpot",
    "typecode": "110205",
    "province": "福建省",
    "city": "福州市",
    "district": "闽侯县",
    "address": "上街镇丹屿村",
    "lng": 119.198875,
    "lat": 26.084224,
    "tel": "[]"
  },
  {
    "id": "B0FFH6RO85",
    "name": "仁惠济侯王宫",
    "type": "ScenicSpot",
    "typecode": "110205",
    "province": "福建省",
    "city": "福州市",
    "district": "仓山区",
    "address": "外胪新村24号",
    "lng": 119.342722,
    "lat": 26.005476,
    "tel": "[]"
  },
  {
    "id": "B024F060FX",
    "name": "将军庙(侯官市)",
    "type": "ScenicSpot",
    "typecode": "110205",
    "province": "福建省",
    "city": "福州市",
    "district": "闽侯县",
    "address": "上街镇侯官村",
    "lng": 119.192026,
    "lat": 26.100857,
    "tel": "[]"
  },
  {
    "id": "B024F061N3",
    "name": "龟山阁公园",
    "type": "ScenicSpot",
    "typecode": "110101",
    "province": "福建省",
    "city": "福州市",
    "district": "闽侯县",
    "address": "青口镇杨厝村阁兜新村1-4号",
    "lng": 119.362011,
    "lat": 25.904169,
    "tel": "[]"
  },
  {
    "id": "B0FFHOU4BV",
    "name": "激情广场",
    "type": "ScenicSpot",
    "typecode": "110105",
    "province": "福建省",
    "city": "福州市",
    "district": "福清市",
    "address": "洪智路与洪宽路交叉口西南120米",
    "lng": 119.417498,
    "lat": 25.76513,
    "tel": "[]"
  },
  {
    "id": "B0FFGU5I6A",
    "name": "福清城山寺",
    "type": "ScenicSpot",
    "typecode": "110205",
    "province": "福建省",
    "city": "福州市",
    "district": "福清市",
    "address": "安顶山附近",
    "lng": 119.555562,
    "lat": 25.513895,
    "tel": "[]"
  },
  {
    "id": "B0FFGB1UVZ",
    "name": "普光明寺",
    "type": "ScenicSpot",
    "typecode": "110205",
    "province": "福建省",
    "city": "福州市",
    "district": "永泰县",
    "address": "葛岭镇",
    "lng": 119.079828,
    "lat": 25.885535,
    "tel": "18650581811"
  },
  {
    "id": "B0FFFEBRAK",
    "name": "平潭雕塑园",
    "type": "ScenicSpot",
    "typecode": "110101",
    "province": "福建省",
    "city": "福州市",
    "district": "平潭县",
    "address": "万宝西路(麒麟荣誉国际酒店院内)",
    "lng": 119.745944,
    "lat": 25.500052,
    "tel": "[]"
  },
  {
    "id": "B024F0XWW6",
    "name": "船政天后宫",
    "type": "ScenicSpot",
    "typecode": "110205",
    "province": "福建省",
    "city": "福州市",
    "district": "马尾区",
    "address": "马尾镇联安路142号中国船政文化景区",
    "lng": 119.451548,
    "lat": 25.991397,
    "tel": "0591-83982096"
  },
  {
    "id": "B024F0WGG1",
    "name": "三坊七巷-王麒故居",
    "type": "ScenicSpot",
    "typecode": "110000",
    "province": "福建省",
    "city": "福州市",
    "district": "鼓楼区",
    "address": "三坊七巷郎官巷27号",
    "lng": 119.296841,
    "lat": 26.085095,
    "tel": "0591-83890057"
  },
  {
    "id": "B024F0WG8Y",
    "name": "开化寺",
    "type": "ScenicSpot",
    "typecode": "110205",
    "province": "福建省",
    "city": "福州市",
    "district": "鼓楼区",
    "address": "湖滨路70号",
    "lng": 119.289677,
    "lat": 26.092666,
    "tel": "0591-83783655"
  },
  {
    "id": "B024F05VV5",
    "name": "福州市清凉寺",
    "type": "ScenicSpot",
    "typecode": "110205",
    "province": "福建省",
    "city": "福州市",
    "district": "仓山区",
    "address": "观海路文藻巷31号",
    "lng": 119.31858,
    "lat": 26.047177,
    "tel": "0591-83441409"
  },
  {
    "id": "B024F05G7Q",
    "name": "登山古径",
    "type": "ScenicSpot",
    "typecode": "110000",
    "province": "福建省",
    "city": "福州市",
    "district": "晋安区",
    "address": "鼓山路鼓山风景区内",
    "lng": 119.395496,
    "lat": 26.053871,
    "tel": "0591-83921184"
  },
  {
    "id": "B024F05DBY",
    "name": "苏澳基督教堂",
    "type": "ScenicSpot",
    "typecode": "110206",
    "province": "福建省",
    "city": "福州市",
    "district": "平潭县",
    "address": "平潭综合实验区苏澳镇卫生院北侧90米",
    "lng": 119.710079,
    "lat": 25.610677,
    "tel": "[]"
  },
  {
    "id": "B024F05ABE",
    "name": "上井林氏宗祠",
    "type": "ScenicSpot",
    "typecode": "110205",
    "province": "福建省",
    "city": "福州市",
    "district": "闽侯县",
    "address": "江南路与117县道交叉口东300米",
    "lng": 119.222136,
    "lat": 25.971536,
    "tel": "[]"
  },
  {
    "id": "B024F057E8",
    "name": "曹氏宗祠",
    "type": "ScenicSpot",
    "typecode": "110205",
    "province": "福建省",
    "city": "福州市",
    "district": "福清市",
    "address": "江镜镇苍溪村",
    "lng": 119.399369,
    "lat": 25.569651,
    "tel": "[]"
  },
  {
    "id": "B0FFJUE0PN",
    "name": "云林禅寺",
    "type": "ScenicSpot",
    "typecode": "110205",
    "province": "福建省",
    "city": "福州市",
    "district": "闽侯县",
    "address": "荆溪镇六垱村",
    "lng": 119.188611,
    "lat": 26.23548,
    "tel": "[]"
  },
  {
    "id": "B0FFI6I9ZV",
    "name": "溪边村天主教堂",
    "type": "ScenicSpot",
    "typecode": "110206",
    "province": "福建省",
    "city": "福州市",
    "district": "福清市",
    "address": "228国道与春梅路交叉口南320米",
    "lng": 119.519743,
    "lat": 25.708791,
    "tel": "[]"
  },
  {
    "id": "B0FFHL2EJT",
    "name": "魁峰境将军庙",
    "type": "ScenicSpot",
    "typecode": "110205",
    "province": "福建省",
    "city": "福州市",
    "district": "马尾区",
    "address": "马尾镇魁岐村里塘319号",
    "lng": 119.379306,
    "lat": 26.029532,
    "tel": "[]"
  },
  {
    "id": "B024F061ZO",
    "name": "观音岐凤山寺",
    "type": "ScenicSpot",
    "typecode": "110205",
    "province": "福建省",
    "city": "福州市",
    "district": "闽侯县",
    "address": "鸿尾乡凤山寺",
    "lng": 118.953099,
    "lat": 26.212813,
    "tel": "[]"
  },
  {
    "id": "B0FFHXN1FQ",
    "name": "鼓山白云峰观景台",
    "type": "ScenicSpot",
    "typecode": "110209",
    "province": "福建省",
    "city": "福州市",
    "district": "晋安区",
    "address": "鼓山路鼓山风景区内",
    "lng": 119.39429,
    "lat": 26.062857,
    "tel": "[]"
  },
  {
    "id": "B0FFHJQ3RB",
    "name": "潭头卧佛",
    "type": "ScenicSpot",
    "typecode": "110200",
    "province": "福建省",
    "city": "福州市",
    "district": "长乐区",
    "address": "潭头镇边兰村法王寺",
    "lng": 119.575506,
    "lat": 26.001148,
    "tel": "[]"
  },
  {
    "id": "B0FFGZB0W0",
    "name": "竹屿湖公园",
    "type": "ScenicSpot",
    "typecode": "110101",
    "province": "福建省",
    "city": "福州市",
    "district": "平潭县",
    "address": "坛西大道与中山大道交叉口东南300米",
    "lng": 119.747398,
    "lat": 25.500815,
    "tel": "[]"
  },
  {
    "id": "B024F0U8XX",
    "name": "长山湖公园",
    "type": "ScenicSpot",
    "typecode": "110101",
    "province": "福建省",
    "city": "福州市",
    "district": "长乐区",
    "address": "航城街道广场路39号",
    "lng": 119.501484,
    "lat": 25.955792,
    "tel": "18859178649"
  },
  {
    "id": "B024F058EQ",
    "name": "莲花山风景区",
    "type": "ScenicSpot",
    "typecode": "110200",
    "province": "福建省",
    "city": "福州市",
    "district": "晋安区",
    "address": "福飞北路与莲花峰路交叉口东南380米",
    "lng": 119.302766,
    "lat": 26.147524,
    "tel": "[]"
  },
  {
    "id": "B024F05YDG",
    "name": "龙溪境",
    "type": "ScenicSpot",
    "typecode": "110200",
    "province": "福建省",
    "city": "福州市",
    "district": "晋安区",
    "address": "后溪路85号",
    "lng": 119.36752,
    "lat": 26.091142,
    "tel": "[]"
  },
  {
    "id": "B024F05BM6",
    "name": "龙山寺",
    "type": "ScenicSpot",
    "typecode": "110205",
    "province": "福建省",
    "city": "福州市",
    "district": "福清市",
    "address": "龙江街道龙山路",
    "lng": 119.393092,
    "lat": 25.721644,
    "tel": "[]"
  },
  {
    "id": "B0FFGB4NQQ",
    "name": "报国寺",
    "type": "ScenicSpot",
    "typecode": "110205",
    "province": "福建省",
    "city": "福州市",
    "district": "连江县",
    "address": "马鼻镇东湾村东川219号",
    "lng": 119.629751,
    "lat": 26.376986,
    "tel": "[]"
  },
  {
    "id": "B0FFIFRMCN",
    "name": "魁岐玉清宫",
    "type": "ScenicSpot",
    "typecode": "110200",
    "province": "福建省",
    "city": "福州市",
    "district": "马尾区",
    "address": "魁岐村里塘304",
    "lng": 119.389814,
    "lat": 26.029713,
    "tel": "[]"
  },
  {
    "id": "B0FFHWSEPO",
    "name": "五凤湖",
    "type": "ScenicSpot",
    "typecode": "110200",
    "province": "福建省",
    "city": "福州市",
    "district": "闽侯县",
    "address": "南屿镇五峰里1号旗山森林温泉度假村内",
    "lng": 119.184013,
    "lat": 25.98502,
    "tel": "[]"
  },
  {
    "id": "B0FFHNSYA4",
    "name": "三和堂",
    "type": "ScenicSpot",
    "typecode": "110200",
    "province": "福建省",
    "city": "福州市",
    "district": "鼓楼区",
    "address": "黎明美景良城西(祥屿路东)",
    "lng": 119.281591,
    "lat": 26.071906,
    "tel": "[]"
  },
  {
    "id": "B0FFHN153L",
    "name": "滨江和谐园",
    "type": "ScenicSpot",
    "typecode": "110101",
    "province": "福建省",
    "city": "福州市",
    "district": "晋安区",
    "address": "国货互通与远洋路交叉口南120米",
    "lng": 119.364159,
    "lat": 26.056259,
    "tel": "[]"
  },
  {
    "id": "B0FFHIG6JY",
    "name": "连江仙踪寺",
    "type": "ScenicSpot",
    "typecode": "110205",
    "province": "福建省",
    "city": "福州市",
    "district": "连江县",
    "address": "鲤溪坪岗附近",
    "lng": 119.613441,
    "lat": 26.370366,
    "tel": "[]"
  },
  {
    "id": "B0FFH2B03X",
    "name": "江滨公园",
    "type": "ScenicSpot",
    "typecode": "110101",
    "province": "福建省",
    "city": "福州市",
    "district": "福清市",
    "address": "凤池街与桥西路交叉口东340米",
    "lng": 119.209899,
    "lat": 25.487994,
    "tel": "[]"
  },
  {
    "id": "B0FFGCTR6A",
    "name": "江阴芝山教会",
    "type": "ScenicSpot",
    "typecode": "110206",
    "province": "福建省",
    "city": "福州市",
    "district": "福清市",
    "address": "新江公路与高港大道交叉口西北440米",
    "lng": 119.292171,
    "lat": 25.469786,
    "tel": "[]"
  },
  {
    "id": "B0FFFRKGH7",
    "name": "高盖五台山文殊寺",
    "type": "ScenicSpot",
    "typecode": "110205",
    "province": "福建省",
    "city": "福州市",
    "district": "仓山区",
    "address": "盖山路光桥村",
    "lng": 119.319715,
    "lat": 26.01184,
    "tel": "0591-83511156"
  },
  {
    "id": "B024F0WG9V",
    "name": "城门基督教堂",
    "type": "ScenicSpot",
    "typecode": "110206",
    "province": "福建省",
    "city": "福州市",
    "district": "仓山区",
    "address": "城门镇城门街206号(城门地铁站C南口步行400米)",
    "lng": 119.359634,
    "lat": 25.99477,
    "tel": "[]"
  },
  {
    "id": "B024F060BP",
    "name": "基督教南屿堂",
    "type": "ScenicSpot",
    "typecode": "110206",
    "province": "福建省",
    "city": "福州市",
    "district": "闽侯县",
    "address": "117县道",
    "lng": 119.219569,
    "lat": 25.978272,
    "tel": "0591-22807747"
  },
  {
    "id": "B024F05TJ5",
    "name": "福建新四军抗战史暨福州抗战史展览馆",
    "type": "ScenicSpot",
    "typecode": "110000",
    "province": "福建省",
    "city": "福州市",
    "district": "鼓楼区",
    "address": "文儒坊6号三坊七巷(东街口地铁站C口步行410米)",
    "lng": 119.298419,
    "lat": 26.082387,
    "tel": "0591-83890057"
  },
  {
    "id": "B024F05724",
    "name": "龙卧禅寺",
    "type": "ScenicSpot",
    "typecode": "110205",
    "province": "福建省",
    "city": "福州市",
    "district": "福清市",
    "address": "城头镇湖美村",
    "lng": 119.515388,
    "lat": 25.73345,
    "tel": "[]"
  },
  {
    "id": "B024F056QY",
    "name": "河阳石氏宗祠",
    "type": "ScenicSpot",
    "typecode": "110205",
    "province": "福建省",
    "city": "福州市",
    "district": "长乐区",
    "address": "古槐坊里",
    "lng": 119.544159,
    "lat": 25.881897,
    "tel": "[]"
  },
  {
    "id": "B024F055LJ",
    "name": "开善寺",
    "type": "ScenicSpot",
    "typecode": "110205",
    "province": "福建省",
    "city": "福州市",
    "district": "罗源县",
    "address": "起步镇上长治",
    "lng": 119.519761,
    "lat": 26.505624,
    "tel": "0591-26807558"
  },
  {
    "id": "B024F04Z88",
    "name": "基督教小岭堂",
    "type": "ScenicSpot",
    "typecode": "110206",
    "province": "福建省",
    "city": "福州市",
    "district": "仓山区",
    "address": "下藤路2号(上藤地铁站C东南口步行170米)",
    "lng": 119.32257,
    "lat": 26.042597,
    "tel": "[]"
  },
  {
    "id": "B024F04WCB",
    "name": "青春广场",
    "type": "ScenicSpot",
    "typecode": "110105",
    "province": "福建省",
    "city": "福州市",
    "district": "台江区",
    "address": "国货西路与广达路交叉口西北",
    "lng": 119.307762,
    "lat": 26.064139,
    "tel": "0591-87905555"
  },
  {
    "id": "B024F04UJY",
    "name": "铺前基督教堂",
    "type": "ScenicSpot",
    "typecode": "110206",
    "province": "福建省",
    "city": "福州市",
    "district": "台江区",
    "address": "八一七中路806号",
    "lng": 119.306075,
    "lat": 26.057274,
    "tel": "0591-83948011"
  },
  {
    "id": "B024F05MKM",
    "name": "昙石楹联公园",
    "type": "ScenicSpot",
    "typecode": "110101",
    "province": "福建省",
    "city": "福州市",
    "district": "闽侯县",
    "address": "昙石村222号",
    "lng": 119.157384,
    "lat": 26.141074,
    "tel": "[]"
  },
  {
    "id": "B0FFJWWCFN",
    "name": "东林寺",
    "type": "ScenicSpot",
    "typecode": "110205",
    "province": "福建省",
    "city": "福州市",
    "district": "长乐区",
    "address": "G3(京台高速)",
    "lng": 119.602462,
    "lat": 25.722202,
    "tel": "[]"
  },
  {
    "id": "B0FFJ39Y6Q",
    "name": "福清镜洋天竺寺",
    "type": "ScenicSpot",
    "typecode": "110205",
    "province": "福建省",
    "city": "福州市",
    "district": "福清市",
    "address": "镜洋镇西边村茶山头15号",
    "lng": 119.285278,
    "lat": 25.818691,
    "tel": "[]"
  },
  {
    "id": "B0FFI0T4JH",
    "name": "天上第八界王母娘娘堂",
    "type": "ScenicSpot",
    "typecode": "110205",
    "province": "福建省",
    "city": "福州市",
    "district": "仓山区",
    "address": "城门镇峡北村",
    "lng": 119.395473,
    "lat": 25.96481,
    "tel": "[]"
  },
  {
    "id": "B0FFHYL7LF",
    "name": "王氏宗祠",
    "type": "ScenicSpot",
    "typecode": "110205",
    "province": "福建省",
    "city": "福州市",
    "district": "仓山区",
    "address": "盘屿路与东岭路交叉口西北220米",
    "lng": 119.275161,
    "lat": 26.014725,
    "tel": "[]"
  },
  {
    "id": "B0FFHI4Y0W",
    "name": "连江马鼻罗汉禅寺",
    "type": "ScenicSpot",
    "typecode": "110205",
    "province": "福建省",
    "city": "福州市",
    "district": "连江县",
    "address": "马鼻镇鲤溪村72号",
    "lng": 119.612162,
    "lat": 26.368217,
    "tel": "[]"
  },
  {
    "id": "B0FFHEPVM8",
    "name": "福清市仙井岩禅寺",
    "type": "ScenicSpot",
    "typecode": "110205",
    "province": "福建省",
    "city": "福州市",
    "district": "福清市",
    "address": "镜洋镇磨石村东园51号",
    "lng": 119.31535,
    "lat": 25.781886,
    "tel": "13405939802"
  },
  {
    "id": "B0FFH8MAK5",
    "name": "长乐蓝田真元观",
    "type": "ScenicSpot",
    "typecode": "110205",
    "province": "福建省",
    "city": "福州市",
    "district": "长乐区",
    "address": "金峰镇蓝田村",
    "lng": 119.590217,
    "lat": 25.960046,
    "tel": "[]"
  },
  {
    "id": "B0FFH1J4YD",
    "name": "连江福斗禅寺",
    "type": "ScenicSpot",
    "typecode": "110205",
    "province": "福建省",
    "city": "福州市",
    "district": "连江县",
    "address": "琯头镇定岐村",
    "lng": 119.629719,
    "lat": 26.137901,
    "tel": "[]"
  },
  {
    "id": "B0FFGYQOJV",
    "name": "兰若禅寺",
    "type": "ScenicSpot",
    "typecode": "110205",
    "province": "福建省",
    "city": "福州市",
    "district": "连江县",
    "address": "琯头镇东边村西兴路",
    "lng": 119.562262,
    "lat": 26.152786,
    "tel": "[]"
  },
  {
    "id": "B0FFGEA2IG",
    "name": "广明禅寺",
    "type": "ScenicSpot",
    "typecode": "110205",
    "province": "福建省",
    "city": "福州市",
    "district": "长乐区",
    "address": "新马村附近",
    "lng": 119.460556,
    "lat": 25.940943,
    "tel": "13328201581"
  },
  {
    "id": "B0FFGCZA99",
    "name": "福州翠微寺",
    "type": "ScenicSpot",
    "typecode": "110205",
    "province": "福建省",
    "city": "福州市",
    "district": "晋安区",
    "address": "寿山乡芹石村芹石184号",
    "lng": 119.246403,
    "lat": 26.263243,
    "tel": "13763825320"
  },
  {
    "id": "B0FFG9H5H5",
    "name": "行乐宫",
    "type": "ScenicSpot",
    "typecode": "110000",
    "province": "福建省",
    "city": "福州市",
    "district": "仓山区",
    "address": "天水村49-3号",
    "lng": 119.302414,
    "lat": 25.991239,
    "tel": "[]"
  },
  {
    "id": "B0FFG9EBAB",
    "name": "九天宫",
    "type": "ScenicSpot",
    "typecode": "110205",
    "province": "福建省",
    "city": "福州市",
    "district": "仓山区",
    "address": "城门村城门山工业区5号",
    "lng": 119.362231,
    "lat": 26.002122,
    "tel": "[]"
  },
  {
    "id": "B0FFG89MN4",
    "name": "基督教上街堂",
    "type": "ScenicSpot",
    "typecode": "110206",
    "province": "福建省",
    "city": "福州市",
    "district": "闽侯县",
    "address": "上街镇红峰社区居委会都巡133号",
    "lng": 119.187488,
    "lat": 26.086802,
    "tel": "[]"
  },
  {
    "id": "B0FFF9XW3Z",
    "name": "闽都基督教堂",
    "type": "ScenicSpot",
    "typecode": "110206",
    "province": "福建省",
    "city": "福州市",
    "district": "闽侯县",
    "address": "闽都大庄园15号",
    "lng": 119.216667,
    "lat": 26.07093,
    "tel": "[]"
  },
  {
    "id": "B0FFF2BVFY",
    "name": "法治公园",
    "type": "ScenicSpot",
    "typecode": "110101",
    "province": "福建省",
    "city": "福州市",
    "district": "永泰县",
    "address": "旗山路535号",
    "lng": 118.968624,
    "lat": 25.865128,
    "tel": "[]"
  },
  {
    "id": "B024F0WGK5",
    "name": "港头天主教堂",
    "type": "ScenicSpot",
    "typecode": "110206",
    "province": "福建省",
    "city": "福州市",
    "district": "罗源县",
    "address": "起步镇港头村桥上105号",
    "lng": 119.55841,
    "lat": 26.502886,
    "tel": "[]"
  },
  {
    "id": "B024F0WGJP",
    "name": "五仙寺",
    "type": "ScenicSpot",
    "typecode": "110205",
    "province": "福建省",
    "city": "福州市",
    "district": "闽侯县",
    "address": "竹岐乡竹西村竹西39号",
    "lng": 119.0897,
    "lat": 26.144986,
    "tel": "[]"
  },
  {
    "id": "B024F0WG3W",
    "name": "三峰寺",
    "type": "ScenicSpot",
    "typecode": "110205",
    "province": "福建省",
    "city": "福州市",
    "district": "闽侯县",
    "address": "荆溪镇关中村古(鼓)响1号",
    "lng": 119.196577,
    "lat": 26.221064,
    "tel": "15312610327"
  },
  {
    "id": "B024F0UF3N",
    "name": "五凤公园",
    "type": "ScenicSpot",
    "typecode": "110101",
    "province": "福建省",
    "city": "福州市",
    "district": "鼓楼区",
    "address": "丞相路60号",
    "lng": 119.269546,
    "lat": 26.10419,
    "tel": "[]"
  },
  {
    "id": "B024F0UBUJ",
    "name": "廉园",
    "type": "ScenicSpot",
    "typecode": "110101",
    "province": "福建省",
    "city": "福州市",
    "district": "长乐区",
    "address": "青闸线附近",
    "lng": 119.502849,
    "lat": 25.934807,
    "tel": "[]"
  },
  {
    "id": "B024F063B7",
    "name": "湖边公园",
    "type": "ScenicSpot",
    "typecode": "110101",
    "province": "福建省",
    "city": "福州市",
    "district": "鼓楼区",
    "address": "环西湖商圈湖滨路70号",
    "lng": 119.289946,
    "lat": 26.097659,
    "tel": "[]"
  },
  {
    "id": "B024F05Z1W",
    "name": "文京寺",
    "type": "ScenicSpot",
    "typecode": "110205",
    "province": "福建省",
    "city": "福州市",
    "district": "长乐区",
    "address": "漳港街道洋边村文京路68号",
    "lng": 119.620546,
    "lat": 25.942421,
    "tel": "[]"
  },
  {
    "id": "B024F05OY3",
    "name": "连江琯头象龙寺",
    "type": "ScenicSpot",
    "typecode": "110205",
    "province": "福建省",
    "city": "福州市",
    "district": "连江县",
    "address": "大坪顶隧道附近",
    "lng": 119.576462,
    "lat": 26.153524,
    "tel": "[]"
  },
  {
    "id": "B024F05N6O",
    "name": "紫竹林",
    "type": "ScenicSpot",
    "typecode": "110205",
    "province": "福建省",
    "city": "福州市",
    "district": "闽侯县",
    "address": "上街镇一一七县道与浦上大道交叉口东南侧100米",
    "lng": 119.211769,
    "lat": 26.009529,
    "tel": "[]"
  },
  {
    "id": "B024F05MKV",
    "name": "洽浦庙",
    "type": "ScenicSpot",
    "typecode": "110205",
    "province": "福建省",
    "city": "福州市",
    "district": "闽侯县",
    "address": "甘蔗街道洽浦村",
    "lng": 119.162405,
    "lat": 26.132228,
    "tel": "[]"
  },
  {
    "id": "B024F05E5B",
    "name": "琴江翁氏宗祠",
    "type": "ScenicSpot",
    "typecode": "110205",
    "province": "福建省",
    "city": "福州市",
    "district": "福清市",
    "address": "小林牙科西北侧90米",
    "lng": 119.318405,
    "lat": 25.452562,
    "tel": "[]"
  },
  {
    "id": "B024F05DKF",
    "name": "九龙寺",
    "type": "ScenicSpot",
    "typecode": "110205",
    "province": "福建省",
    "city": "福州市",
    "district": "福清市",
    "address": "九龙禅寺",
    "lng": 119.319437,
    "lat": 25.58873,
    "tel": "0591-85687466"
  },
  {
    "id": "B024F05BJW",
    "name": "南涧寺",
    "type": "ScenicSpot",
    "typecode": "110205",
    "province": "福建省",
    "city": "福州市",
    "district": "福清市",
    "address": "龙江街道水南村",
    "lng": 119.380898,
    "lat": 25.708531,
    "tel": "[]"
  },
  {
    "id": "B0FFG0O677",
    "name": "亭头庙",
    "type": "ScenicSpot",
    "typecode": "110205",
    "province": "福建省",
    "city": "福州市",
    "district": "仓山区",
    "address": "凤冈路188号",
    "lng": 119.269428,
    "lat": 26.040967,
    "tel": "[]"
  },
  {
    "id": "B0FFI9UZ67",
    "name": "东岱南门公园",
    "type": "ScenicSpot",
    "typecode": "110101",
    "province": "福建省",
    "city": "福州市",
    "district": "连江县",
    "address": "东兴中路",
    "lng": 119.621434,
    "lat": 26.235578,
    "tel": "[]"
  },
  {
    "id": "B0FFI6U7Z1",
    "name": "儿童公园路",
    "type": "ScenicSpot",
    "typecode": "110101",
    "province": "福建省",
    "city": "福州市",
    "district": "台江区",
    "address": "五一中路132号万都阿波罗酒店公寓一层",
    "lng": 119.310281,
    "lat": 26.066937,
    "tel": "[]"
  },
  {
    "id": "B0FFHIL53T",
    "name": "连江透堡三仙观",
    "type": "ScenicSpot",
    "typecode": "110205",
    "province": "福建省",
    "city": "福州市",
    "district": "连江县",
    "address": "北街村",
    "lng": 119.62662,
    "lat": 26.347371,
    "tel": "[]"
  },
  {
    "id": "B0FFHIBN5O",
    "name": "长乐金峰胪峰圣林禅寺",
    "type": "ScenicSpot",
    "typecode": "110205",
    "province": "福建省",
    "city": "福州市",
    "district": "长乐区",
    "address": "上张村",
    "lng": 119.63934,
    "lat": 25.974905,
    "tel": "[]"
  },
  {
    "id": "B0FFGH4AK6",
    "name": "仙步林氏宗祠",
    "type": "ScenicSpot",
    "typecode": "110200",
    "province": "福建省",
    "city": "福州市",
    "district": "仓山区",
    "address": "城门镇林厝里",
    "lng": 119.380844,
    "lat": 25.975001,
    "tel": "[]"
  },
  {
    "id": "B0FFFYX9NR",
    "name": "天主堂",
    "type": "ScenicSpot",
    "typecode": "110206",
    "province": "福建省",
    "city": "福州市",
    "district": "福清市",
    "address": "松潭村",
    "lng": 119.407764,
    "lat": 25.695603,
    "tel": "[]"
  },
  {
    "id": "B024F05UNX",
    "name": "齐天大圣府",
    "type": "ScenicSpot",
    "typecode": "110205",
    "province": "福建省",
    "city": "福州市",
    "district": "台江区",
    "address": "交通路66号",
    "lng": 119.300101,
    "lat": 26.066866,
    "tel": "[]"
  },
  {
    "id": "B024F05NA5",
    "name": "天主教长乐若瑟堂",
    "type": "ScenicSpot",
    "typecode": "110206",
    "province": "福建省",
    "city": "福州市",
    "district": "长乐区",
    "address": "十洋路40号",
    "lng": 119.520584,
    "lat": 25.961519,
    "tel": "[]"
  },
  {
    "id": "B0FFHAFT6C",
    "name": "连江晓澳妙华寺",
    "type": "ScenicSpot",
    "typecode": "110205",
    "province": "福建省",
    "city": "福州市",
    "district": "连江县",
    "address": "晓澳镇",
    "lng": 119.642245,
    "lat": 26.218154,
    "tel": "0591-26340188"
  },
  {
    "id": "B0FFH1C8CF",
    "name": "闽江河口国家湿地公园-生态鸟岛",
    "type": "ScenicSpot",
    "typecode": "110000",
    "province": "福建省",
    "city": "福州市",
    "district": "长乐区",
    "address": "闽江河口国家湿地公园内(西北角)",
    "lng": 119.614313,
    "lat": 26.031462,
    "tel": "[]"
  },
  {
    "id": "B0FFF3T3ZB",
    "name": "鹤巢寺",
    "type": "ScenicSpot",
    "typecode": "110205",
    "province": "福建省",
    "city": "福州市",
    "district": "仓山区",
    "address": "盖山镇盘屿社区通鹤路33号",
    "lng": 119.309308,
    "lat": 26.008697,
    "tel": "0591-83562591"
  },
  {
    "id": "B024F0WG8N",
    "name": "龙安禅寺",
    "type": "ScenicSpot",
    "typecode": "110205",
    "province": "福建省",
    "city": "福州市",
    "district": "闽侯县",
    "address": "智恒科技路与117县道交叉口南440米",
    "lng": 119.21732,
    "lat": 25.998437,
    "tel": "[]"
  },
  {
    "id": "B0FFJ11RFE",
    "name": "金鱼展览区",
    "type": "ScenicSpot",
    "typecode": "110000",
    "province": "福建省",
    "city": "福州市",
    "district": "晋安区",
    "address": "新店镇赤桥村7号福州动物园内(东侧)",
    "lng": 119.291679,
    "lat": 26.139757,
    "tel": "0591-83735714"
  },
  {
    "id": "B0FFIR1TIS",
    "name": "灵山廣义寺",
    "type": "ScenicSpot",
    "typecode": "110205",
    "province": "福建省",
    "city": "福州市",
    "district": "长乐区",
    "address": "岱灵村",
    "lng": 119.592062,
    "lat": 25.988422,
    "tel": "0591-28665521"
  },
  {
    "id": "B0FFI2IJQ9",
    "name": "罗源县飞竹镇凤山寺",
    "type": "ScenicSpot",
    "typecode": "110205",
    "province": "福建省",
    "city": "福州市",
    "district": "罗源县",
    "address": "142县道东100米",
    "lng": 119.342204,
    "lat": 26.467495,
    "tel": "[]"
  },
  {
    "id": "B0FFHXMF5C",
    "name": "白云洞-海音洞",
    "type": "ScenicSpot",
    "typecode": "110000",
    "province": "福建省",
    "city": "福州市",
    "district": "晋安区",
    "address": "白云洞内(北侧)",
    "lng": 119.389805,
    "lat": 26.07533,
    "tel": "0591-83669008"
  },
  {
    "id": "B0FFHWR3W5",
    "name": "观岩亭",
    "type": "ScenicSpot",
    "typecode": "110000",
    "province": "福建省",
    "city": "福州市",
    "district": "晋安区",
    "address": "鼓山旅游景区",
    "lng": 119.386371,
    "lat": 26.05052,
    "tel": "[]"
  },
  {
    "id": "B0FFHGK52X",
    "name": "罗源中房叠石三清观",
    "type": "ScenicSpot",
    "typecode": "110205",
    "province": "福建省",
    "city": "福州市",
    "district": "罗源县",
    "address": "中房镇叠石村",
    "lng": 119.489888,
    "lat": 26.584657,
    "tel": "[]"
  },
  {
    "id": "B0FFG0F7FD",
    "name": "光明城基督徒聚会处",
    "type": "ScenicSpot",
    "typecode": "110206",
    "province": "福建省",
    "city": "福州市",
    "district": "台江区",
    "address": "老药洲街202-204号附近",
    "lng": 119.319727,
    "lat": 26.057691,
    "tel": "0591-83272671;15959111071"
  },
  {
    "id": "B024F0WG8T",
    "name": "状元峰",
    "type": "ScenicSpot",
    "typecode": "110000",
    "province": "福建省",
    "city": "福州市",
    "district": "鼓楼区",
    "address": "于山路9号于山风景区内",
    "lng": 119.307734,
    "lat": 26.077852,
    "tel": "0591-83355720"
  },
  {
    "id": "B024F0WFOE",
    "name": "三军联合作战演习纪念碑",
    "type": "ScenicSpot",
    "typecode": "110204",
    "province": "福建省",
    "city": "福州市",
    "district": "平潭县",
    "address": "平潭国际旅游岛·将军山内",
    "lng": 119.770498,
    "lat": 25.409084,
    "tel": "0591-38080508"
  },
  {
    "id": "B024F0VALL",
    "name": "胡也频故居",
    "type": "ScenicSpot",
    "typecode": "110210",
    "province": "福建省",
    "city": "福州市",
    "district": "鼓楼区",
    "address": "乌山路与乌山支路交叉口西120米",
    "lng": 119.299074,
    "lat": 26.075401,
    "tel": "0591-83250596"
  },
  {
    "id": "B024F0UBT1",
    "name": "半岭亭",
    "type": "ScenicSpot",
    "typecode": "110205",
    "province": "福建省",
    "city": "福州市",
    "district": "闽侯县",
    "address": "后山路",
    "lng": 119.132479,
    "lat": 26.173524,
    "tel": "[]"
  },
  {
    "id": "B024F0UBMP",
    "name": "临水宫",
    "type": "ScenicSpot",
    "typecode": "110205",
    "province": "福建省",
    "city": "福州市",
    "district": "闽侯县",
    "address": "祥谦镇兰圃村龟山路15号",
    "lng": 119.395017,
    "lat": 25.915171,
    "tel": "[]"
  },
  {
    "id": "B024F05UNE",
    "name": "崇妙保圣坚牢塔",
    "type": "ScenicSpot",
    "typecode": "110000",
    "province": "福建省",
    "city": "福州市",
    "district": "鼓楼区",
    "address": "乌山历史风貌区内(南门兜地铁站B西口步行160米)",
    "lng": 119.300398,
    "lat": 26.077345,
    "tel": "0591-87503954"
  },
  {
    "id": "B024F057L3",
    "name": "刘氏宗祠",
    "type": "ScenicSpot",
    "typecode": "110205",
    "province": "福建省",
    "city": "福州市",
    "district": "平潭县",
    "address": "305省道",
    "lng": 119.718322,
    "lat": 25.437526,
    "tel": "[]"
  },
  {
    "id": "B024F057KO",
    "name": "护国禅寺",
    "type": "ScenicSpot",
    "typecode": "110205",
    "province": "福建省",
    "city": "福州市",
    "district": "福清市",
    "address": "山东路",
    "lng": 119.638133,
    "lat": 25.395118,
    "tel": "[]"
  },
  {
    "id": "B024F057IK",
    "name": "郑氏祠堂",
    "type": "ScenicSpot",
    "typecode": "110200",
    "province": "福建省",
    "city": "福州市",
    "district": "福清市",
    "address": "偕星路",
    "lng": 119.461793,
    "lat": 25.633086,
    "tel": "[]"
  },
  {
    "id": "B024F055JI",
    "name": "城隍庙",
    "type": "ScenicSpot",
    "typecode": "110205",
    "province": "福建省",
    "city": "福州市",
    "district": "连江县",
    "address": "城隍庙(201省道南)",
    "lng": 119.648365,
    "lat": 26.370745,
    "tel": "0591-28828936"
  },
  {
    "id": "B024F012EF",
    "name": "王氏祠堂",
    "type": "ScenicSpot",
    "typecode": "110205",
    "province": "福建省",
    "city": "福州市",
    "district": "福清市",
    "address": "港头镇光辉村",
    "lng": 119.488864,
    "lat": 25.569158,
    "tel": "[]"
  },
  {
    "id": "B0FFJSOSA9",
    "name": "报恩寺",
    "type": "ScenicSpot",
    "typecode": "110205",
    "province": "福建省",
    "city": "福州市",
    "district": "连江县",
    "address": "琯头镇东边村69号",
    "lng": 119.56893,
    "lat": 26.139806,
    "tel": "13600754033"
  },
  {
    "id": "B0FFG0HAHM",
    "name": "双拥林",
    "type": "ScenicSpot",
    "typecode": "110000",
    "province": "福建省",
    "city": "福州市",
    "district": "晋安区",
    "address": "福州国家森林公园(西北角)",
    "lng": 119.283153,
    "lat": 26.166535,
    "tel": "0591-87921213"
  },
  {
    "id": "B024F0UG93",
    "name": "望江楼",
    "type": "ScenicSpot",
    "typecode": "110200",
    "province": "福建省",
    "city": "福州市",
    "district": "连江县",
    "address": "琯头镇梅屿村(连江县晓澳镇人民政府东)",
    "lng": 119.659484,
    "lat": 26.213801,
    "tel": "[]"
  },
  {
    "id": "B024F061PU",
    "name": "福州国家森林公园-珍稀植物园",
    "type": "ScenicSpot",
    "typecode": "110103",
    "province": "福建省",
    "city": "福州市",
    "district": "晋安区",
    "address": "国家森林公园内",
    "lng": 119.290344,
    "lat": 26.149163,
    "tel": "0591-87921840"
  },
  {
    "id": "B0FFK27NAD",
    "name": "平潭国际旅游岛·长江澳",
    "type": "ScenicSpot",
    "typecode": "110208",
    "province": "福建省",
    "city": "福州市",
    "district": "平潭县",
    "address": "君山镇磹水村排塘兜87号",
    "lng": 119.791215,
    "lat": 25.608958,
    "tel": "[]"
  },
  {
    "id": "B0FFJM9O23",
    "name": "福州欧乐堡海洋世界",
    "type": "ScenicSpot",
    "typecode": "110104",
    "province": "福建省",
    "city": "福州市",
    "district": "永泰县",
    "address": "葛岭旅游路7号",
    "lng": 119.085279,
    "lat": 25.873427,
    "tel": "0591-62270180"
  },
  {
    "id": "B0FFJ9HMIW",
    "name": "阳光沙滩",
    "type": "ScenicSpot",
    "typecode": "110208",
    "province": "福建省",
    "city": "福州市",
    "district": "仓山区",
    "address": "西三环路66号沙滩公园内(北侧)",
    "lng": 119.230978,
    "lat": 26.080855,
    "tel": "[]"
  },
  {
    "id": "B0FFJ6WHZ6",
    "name": "永鸿野生动物世界",
    "type": "ScenicSpot",
    "typecode": "110102",
    "province": "福建省",
    "city": "福州市",
    "district": "福清市",
    "address": "海口镇岑兜村大真线",
    "lng": 119.424695,
    "lat": 25.680901,
    "tel": "0591-26111111"
  },
  {
    "id": "B0FFJ3IK06",
    "name": "晓澳海滩",
    "type": "ScenicSpot",
    "typecode": "110200",
    "province": "福建省",
    "city": "福州市",
    "district": "连江县",
    "address": "[]",
    "lng": 119.657682,
    "lat": 26.205845,
    "tel": "[]"
  },
  {
    "id": "B0FFJ1ST7C",
    "name": "炉峰山观景台",
    "type": "ScenicSpot",
    "typecode": "110200",
    "province": "福建省",
    "city": "福州市",
    "district": "连江县",
    "address": "透堡镇炉峰寺附近",
    "lng": 119.60289,
    "lat": 26.341749,
    "tel": "[]"
  },
  {
    "id": "B0FFIWO55J",
    "name": "福州植物园",
    "type": "ScenicSpot",
    "typecode": "110103",
    "province": "福建省",
    "city": "福州市",
    "district": "晋安区",
    "address": "新店上赤桥",
    "lng": 119.292461,
    "lat": 26.148934,
    "tel": "0591-87921213"
  },
  {
    "id": "B0FFITJJJB",
    "name": "天马山生态公园",
    "type": "ScenicSpot",
    "typecode": "110101",
    "province": "福建省",
    "city": "福州市",
    "district": "马尾区",
    "address": "沿山东路新民村35号西北方向160米",
    "lng": 119.449082,
    "lat": 25.996309,
    "tel": "[]"
  },
  {
    "id": "B0FFITBW8R",
    "name": "蒲竺寺",
    "type": "ScenicSpot",
    "typecode": "110205",
    "province": "福建省",
    "city": "福州市",
    "district": "长乐区",
    "address": "浮岐航猴线蒲竺寺(猴屿洞天岩附近)",
    "lng": 119.56514,
    "lat": 26.043271,
    "tel": "[]"
  },
  {
    "id": "B0FFIRV54I",
    "name": "鹤林生态公园",
    "type": "ScenicSpot",
    "typecode": "110200",
    "province": "福建省",
    "city": "福州市",
    "district": "晋安区",
    "address": "化工路288号",
    "lng": 119.345693,
    "lat": 26.09348,
    "tel": "[]"
  },
  {
    "id": "B0FFIPTZYZ",
    "name": "闽侯法治廉政文化公园",
    "type": "ScenicSpot",
    "typecode": "110101",
    "province": "福建省",
    "city": "福州市",
    "district": "闽侯县",
    "address": "滨江中大道南50米",
    "lng": 119.18051,
    "lat": 26.112516,
    "tel": "[]"
  },
  {
    "id": "B0FFIPTOVF",
    "name": "南江滨生态公园-金沙公园",
    "type": "ScenicSpot",
    "typecode": "110101",
    "province": "福建省",
    "city": "福州市",
    "district": "仓山区",
    "address": "南江滨东大道三江口生态公园",
    "lng": 119.387493,
    "lat": 26.013486,
    "tel": "[]"
  },
  {
    "id": "B0FFIHEYL4",
    "name": "滋澳海滩",
    "type": "ScenicSpot",
    "typecode": "110000",
    "province": "福建省",
    "city": "福州市",
    "district": "长乐区",
    "address": "滨海大道东150米",
    "lng": 119.688236,
    "lat": 25.914995,
    "tel": "[]"
  },
  {
    "id": "B0FFI9RH1C",
    "name": "漳港海滩",
    "type": "ScenicSpot",
    "typecode": "110200",
    "province": "福建省",
    "city": "福州市",
    "district": "长乐区",
    "address": "漳港街道漳港街道滨海大道南150米",
    "lng": 119.669619,
    "lat": 25.906586,
    "tel": "[]"
  },
  {
    "id": "B0FFI11KC8",
    "name": "南澳海滩",
    "type": "ScenicSpot",
    "typecode": "110208",
    "province": "福建省",
    "city": "福州市",
    "district": "长乐区",
    "address": "滨海大道",
    "lng": 119.677411,
    "lat": 25.905459,
    "tel": "13959179965"
  },
  {
    "id": "B0FFHI7Q4Q",
    "name": "嵩口古镇",
    "type": "ScenicSpot",
    "typecode": "110200",
    "province": "福建省",
    "city": "福州市",
    "district": "永泰县",
    "address": "嵩口镇道南村28号",
    "lng": 118.588369,
    "lat": 25.798229,
    "tel": "[]"
  },
  {
    "id": "B0FFH7JS9C",
    "name": "长乐区象鼻澳海滩",
    "type": "ScenicSpot",
    "typecode": "110208",
    "province": "福建省",
    "city": "福州市",
    "district": "长乐区",
    "address": "滨海路象鼻山",
    "lng": 119.698576,
    "lat": 25.954036,
    "tel": "13075921619"
  },
  {
    "id": "B0FFH0N456",
    "name": "琅岐沙滩",
    "type": "ScenicSpot",
    "typecode": "110208",
    "province": "福建省",
    "city": "福州市",
    "district": "马尾区",
    "address": "琅岐镇琅岐旅游度假区",
    "lng": 119.641934,
    "lat": 26.059224,
    "tel": "[]"
  },
  {
    "id": "B0FFGZV11P",
    "name": "北奥沙滩",
    "type": "ScenicSpot",
    "typecode": "110208",
    "province": "福建省",
    "city": "福州市",
    "district": "平潭县",
    "address": "北澳月海湾",
    "lng": 119.773551,
    "lat": 25.439157,
    "tel": "[]"
  }
]