[
  {
    "id": "B0FFJGCOA3",
    "name": "新顺风海鲜楼(顺丰楼店)",
    "type": "Restaurant",
    "typecode": "050119",
    "province": "福建省",
    "city": "福州市",
    "district": "鼓楼区",
    "address": "顺丰楼2楼(南门兜地铁站D3口步行290米)",
    "lng": 119.303747,
    "lat": 26.073626,
    "tel": "0591-83368888;0591-83377348;0591-87972777"
  },
  {
    "id": "B0FFHMYHMO",
    "name": "福州宴酒楼(广达路店)",
    "type": "Restaurant",
    "typecode": "050101",
    "province": "福建省",
    "city": "福州市",
    "district": "台江区",
    "address": "广达路391-9号名门时尚酒店楼下",
    "lng": 119.309166,
    "lat": 26.060695,
    "tel": "0591-83209392"
  },
  {
    "id": "B0FFFGM67W",
    "name": "望海楼大酒店",
    "type": "Restaurant",
    "typecode": "050000",
    "province": "福建省",
    "city": "福州市",
    "district": "长乐区",
    "address": "漳港街道百户澳市场正对面",
    "lng": 119.631782,
    "lat": 25.897306,
    "tel": "0591-28610555"
  },
  {
    "id": "B024F0443U",
    "name": "中联兰天大酒店",
    "type": "Restaurant",
    "typecode": "100103|050000",
    "province": "福建省",
    "city": "福州市",
    "district": "福清市",
    "address": "龙飞路1号",
    "lng": 119.447425,
    "lat": 25.609978,
    "tel": "0591-85781888"
  },
  {
    "id": "B024F03YMY",
    "name": "融侨大酒店",
    "type": "Restaurant",
    "typecode": "100103|050000",
    "province": "福建省",
    "city": "福州市",
    "district": "福清市",
    "address": "清昌大道1号",
    "lng": 119.371513,
    "lat": 25.721413,
    "tel": "0591-85285018;0591-85344003"
  },
  {
    "id": "B024F03YNS",
    "name": "天泽君悦大酒店",
    "type": "Restaurant",
    "typecode": "100103|050000",
    "province": "福建省",
    "city": "福州市",
    "district": "福清市",
    "address": "元洪路27号冠发国际新城",
    "lng": 119.363479,
    "lat": 25.719197,
    "tel": "0591-85288888;0591-86078156"
  },
  {
    "id": "B0FFHBB5N0",
    "name": "平潭北港望乡人·老柴咖啡",
    "type": "Restaurant",
    "typecode": "050500",
    "province": "福建省",
    "city": "福州市",
    "district": "平潭县",
    "address": "流水镇新门前18号",
    "lng": 119.826819,
    "lat": 25.581695,
    "tel": "18762038015"
  },
  {
    "id": "B0FFGJ8FAI",
    "name": "北岭黄牛馆(十年老店)",
    "type": "Restaurant",
    "typecode": "050100",
    "province": "福建省",
    "city": "福州市",
    "district": "晋安区",
    "address": "宦溪镇宦溪村宦溪街93-95-99号",
    "lng": 119.357176,
    "lat": 26.17221,
    "tel": "13559177083;13799439713"
  },
  {
    "id": "B0FFISP3UV",
    "name": "白沙湾·闽菜大酒楼(福马店)",
    "type": "Restaurant",
    "typecode": "050101",
    "province": "福建省",
    "city": "福州市",
    "district": "晋安区",
    "address": "鼓山镇福马路638号大景城旁",
    "lng": 119.360902,
    "lat": 26.068443,
    "tel": "0591-87721777"
  },
  {
    "id": "B0FFI4TLAD",
    "name": "琅岐迎春阡陌农庄",
    "type": "Restaurant",
    "typecode": "050000",
    "province": "福建省",
    "city": "福州市",
    "district": "马尾区",
    "address": "琅岐镇海屿村6号",
    "lng": 119.61473,
    "lat": 26.080923,
    "tel": "13805005356;15860273409"
  },
  {
    "id": "B0FFHW99BM",
    "name": "兴仙饭店(海洋中心大厦店)",
    "type": "Restaurant",
    "typecode": "050100",
    "province": "福建省",
    "city": "福州市",
    "district": "马尾区",
    "address": "青洲路66号渔业大厦裙楼1-2层",
    "lng": 119.473398,
    "lat": 25.990751,
    "tel": "0591-83796868"
  },
  {
    "id": "B0FFH5ZH2Q",
    "name": "牛仔家庭农庄",
    "type": "Restaurant",
    "typecode": "050100",
    "province": "福建省",
    "city": "福州市",
    "district": "长乐区",
    "address": "营融线与营滨路交叉口东500米",
    "lng": 119.477505,
    "lat": 25.855131,
    "tel": "0591-28536999"
  },
  {
    "id": "B0FFJ0SZ4D",
    "name": "永泰孝周葱饼",
    "type": "Restaurant",
    "typecode": "050000",
    "province": "福建省",
    "city": "福州市",
    "district": "永泰县",
    "address": "城峰镇太原村墩尾孝周葱饼店",
    "lng": 118.979963,
    "lat": 25.856091,
    "tel": "13675086357;18150802977"
  },
  {
    "id": "B0FFIBKBCE",
    "name": "La Q tapa西班牙餐厅(融侨中心店)",
    "type": "Restaurant",
    "typecode": "050201",
    "province": "福建省",
    "city": "福州市",
    "district": "台江区",
    "address": "江滨西大道100号融侨中心二楼2018(外场商圈)",
    "lng": 119.277969,
    "lat": 26.059663,
    "tel": "0591-83812916;0591-83812926;18650483353"
  },
  {
    "id": "B0FFFFRTMA",
    "name": "四川刘记飘香水煮鱼(八角亭店)",
    "type": "Restaurant",
    "typecode": "050102",
    "province": "福建省",
    "city": "福州市",
    "district": "长乐区",
    "address": "西关街33号",
    "lng": 119.516537,
    "lat": 25.965131,
    "tel": "13107602855"
  },
  {
    "id": "B0FFJ7N8YK",
    "name": "小韩屋·石器食代(七海花园店)",
    "type": "Restaurant",
    "typecode": "050203",
    "province": "福建省",
    "city": "福州市",
    "district": "鼓楼区",
    "address": "观风亭街99号(七海花园西门门口)",
    "lng": 119.302305,
    "lat": 26.096947,
    "tel": "17750292820;18950341518"
  },
  {
    "id": "B0FFJ4W669",
    "name": "小川川钵钵鸡(锦绣华庭店)",
    "type": "Restaurant",
    "typecode": "050000",
    "province": "福建省",
    "city": "福州市",
    "district": "鼓楼区",
    "address": "北大路305-1号",
    "lng": 119.295415,
    "lat": 26.089532,
    "tel": "18659178945"
  },
  {
    "id": "B0FFHZSNMC",
    "name": "半天堂姜母鸭(井大路店)",
    "type": "Restaurant",
    "typecode": "050110",
    "province": "福建省",
    "city": "福州市",
    "district": "鼓楼区",
    "address": "井大路209号(七星井新村b16号b17号楼连接体楼下店面)",
    "lng": 119.303311,
    "lat": 26.092167,
    "tel": "13779965681;13850143208"
  },
  {
    "id": "B0FFHKQGPF",
    "name": "四毛龙虾(世欧店)",
    "type": "Restaurant",
    "typecode": "050119",
    "province": "福建省",
    "city": "福州市",
    "district": "晋安区",
    "address": "世欧王庄C2地块4区07-08店面",
    "lng": 119.32911,
    "lat": 26.070643,
    "tel": "15059156673;15960035156"
  },
  {
    "id": "B0FFGHFYG2",
    "name": "鼓岭来福小院",
    "type": "Restaurant",
    "typecode": "050100",
    "province": "福建省",
    "city": "福州市",
    "district": "晋安区",
    "address": "197县道附近",
    "lng": 119.379213,
    "lat": 26.101334,
    "tel": "17359160666"
  },
  {
    "id": "B024F0VFWO",
    "name": "一级棒餐馆(航龙花园店)",
    "type": "Restaurant",
    "typecode": "050104",
    "province": "福建省",
    "city": "福州市",
    "district": "鼓楼区",
    "address": "通湖路航龙花园129号(西门地铁站D口步行360米)",
    "lng": 119.291634,
    "lat": 26.086967,
    "tel": "0591-83732501"
  },
  {
    "id": "B024F056KP",
    "name": "龙宫海鲜楼",
    "type": "Restaurant",
    "typecode": "050119",
    "province": "福建省",
    "city": "福州市",
    "district": "长乐区",
    "address": "漳港街道商行街199号(漳港市场对面)",
    "lng": 119.629058,
    "lat": 25.917055,
    "tel": "0591-28619236;0591-28719236;13395088955"
  },
  {
    "id": "B0FFHH55F2",
    "name": "董议成咸水鸭沙茶面(大儒世家归壹墅·绿园店)",
    "type": "Restaurant",
    "typecode": "050100",
    "province": "福建省",
    "city": "福州市",
    "district": "鼓楼区",
    "address": "大儒世家15栋8号",
    "lng": 119.260249,
    "lat": 26.090571,
    "tel": "13950140025;13950410025"
  },
  {
    "id": "B0FFHCXCZ6",
    "name": "微焙咖啡工厂(海峡创意产业园·红坊6号楼店)",
    "type": "Restaurant",
    "typecode": "050500",
    "province": "福建省",
    "city": "福州市",
    "district": "仓山区",
    "address": "金工路1号红坊海峡创意园6号楼114号",
    "lng": 119.253529,
    "lat": 26.066111,
    "tel": "0591-88262603"
  },
  {
    "id": "B0FFGHUOPF",
    "name": "闽食府(新华福广场A座店)",
    "type": "Restaurant",
    "typecode": "100100|050100",
    "province": "福建省",
    "city": "福州市",
    "district": "鼓楼区",
    "address": "五四路173号(新华福广场A座二楼)",
    "lng": 119.306519,
    "lat": 26.098674,
    "tel": "0591-87817777"
  },
  {
    "id": "B0FFFVNPG1",
    "name": "梦咖啡(玉泉山公园店)",
    "type": "Restaurant",
    "typecode": "050500",
    "province": "福建省",
    "city": "福州市",
    "district": "连江县",
    "address": "凤城镇莲荷西路85号玉泉公园山边A楼一层",
    "lng": 119.528102,
    "lat": 26.198279,
    "tel": "0591-26666609"
  },
  {
    "id": "B0FFFFXMT3",
    "name": "福屿伟榕捞化",
    "type": "Restaurant",
    "typecode": "050100",
    "province": "福建省",
    "city": "福州市",
    "district": "鼓楼区",
    "address": "福屿社区福二路26号",
    "lng": 119.283233,
    "lat": 26.075803,
    "tel": "13805060712"
  },
  {
    "id": "B0FFF2B1IY",
    "name": "竹楼山庄",
    "type": "Restaurant",
    "typecode": "050110",
    "province": "福建省",
    "city": "福州市",
    "district": "闽侯县",
    "address": "南屿镇五都村",
    "lng": 119.171558,
    "lat": 25.997784,
    "tel": "0591-22813882;13609507970"
  },
  {
    "id": "B024F0VKMW",
    "name": "台湾平价牛排(展进路店)",
    "type": "Restaurant",
    "typecode": "050211",
    "province": "福建省",
    "city": "福州市",
    "district": "仓山区",
    "address": "展进路9号福盛苑(西北门)台湾平价牛排(福州旗舰店)",
    "lng": 119.327505,
    "lat": 26.040644,
    "tel": "13338282871"
  },
  {
    "id": "B024F0U070",
    "name": "浦东智安捞化(东景家园店)",
    "type": "Restaurant",
    "typecode": "050100",
    "province": "福建省",
    "city": "福州市",
    "district": "晋安区",
    "address": "鼓山镇前横南路43号东景家园1号18店面",
    "lng": 119.348857,
    "lat": 26.068376,
    "tel": "18850706969"
  },
  {
    "id": "B0FFF6U5DD",
    "name": "鸿旺海鲜楼",
    "type": "Restaurant",
    "typecode": "050119",
    "province": "福建省",
    "city": "福州市",
    "district": "平潭县",
    "address": "流水镇流水街(镇政府北侧)",
    "lng": 119.832375,
    "lat": 25.566463,
    "tel": "0591-24340176;13950375876"
  },
  {
    "id": "B0FFJ5WGUP",
    "name": "777冰饭烧烤(奎桥店)",
    "type": "Restaurant",
    "typecode": "050100",
    "province": "福建省",
    "city": "福州市",
    "district": "长乐区",
    "address": "长乐区吴航街道奎桥路15-17号",
    "lng": 119.517809,
    "lat": 25.957375,
    "tel": "13774547770;18650917770"
  },
  {
    "id": "B0FFIYXCAP",
    "name": "1718公馆(金山店)",
    "type": "Restaurant",
    "typecode": "050100",
    "province": "福建省",
    "city": "福州市",
    "district": "仓山区",
    "address": "金山街道金康路156号(建新大道东侧)中庚城1号2号楼连接体2层02集中式商场5号店面",
    "lng": 119.258115,
    "lat": 26.039342,
    "tel": "0591-83651718"
  },
  {
    "id": "B0FFHBK7MI",
    "name": "阿玲滑粉店(宏路店)",
    "type": "Restaurant",
    "typecode": "050100",
    "province": "福建省",
    "city": "福州市",
    "district": "福清市",
    "address": "宏路街道星星量贩对面",
    "lng": 119.319259,
    "lat": 25.702411,
    "tel": "0591-85361010;15305911518"
  },
  {
    "id": "B0FFGC74A9",
    "name": "蕞驴肉(长乐北路店)",
    "type": "Restaurant",
    "typecode": "050118",
    "province": "福建省",
    "city": "福州市",
    "district": "晋安区",
    "address": "长乐北路240号(紫阳地铁站B口步行200米)",
    "lng": 119.326601,
    "lat": 26.078302,
    "tel": "17759129187;18559186551"
  },
  {
    "id": "B0FFFFVTES",
    "name": "川哥活鱼大排挡(河下总店)",
    "type": "Restaurant",
    "typecode": "050102",
    "province": "福建省",
    "city": "福州市",
    "district": "台江区",
    "address": "河下街1-3号",
    "lng": 119.29613,
    "lat": 26.051827,
    "tel": "13635222770"
  },
  {
    "id": "B0FFI0GQI4",
    "name": "东北佬菜馆(福大店)",
    "type": "Restaurant",
    "typecode": "050113",
    "province": "福建省",
    "city": "福州市",
    "district": "鼓楼区",
    "address": "杨桥西路58号(福大北门)",
    "lng": 119.271052,
    "lat": 26.078146,
    "tel": "15280022759;15880095122"
  },
  {
    "id": "B0FFHLQJH9",
    "name": "老家人温泉水疗中心",
    "type": "Restaurant",
    "typecode": "071400|050100",
    "province": "福建省",
    "city": "福州市",
    "district": "台江区",
    "address": "君临盛世茶亭六地块(福商楼二、三、四层)",
    "lng": 119.30441,
    "lat": 26.069943,
    "tel": "[]"
  },
  {
    "id": "B0FFGZRL9N",
    "name": "莫斯咖啡(平潭店)",
    "type": "Restaurant",
    "typecode": "050500",
    "province": "福建省",
    "city": "福州市",
    "district": "平潭县",
    "address": "平潭综合实验区潭城镇翠园南路安置房小区一层05.06.07店面",
    "lng": 119.788207,
    "lat": 25.497563,
    "tel": "0591-23179695;15959195794"
  },
  {
    "id": "B0FFG9HLHT",
    "name": "松月自慢料理(北二环中路店)",
    "type": "Restaurant",
    "typecode": "050202",
    "province": "福建省",
    "city": "福州市",
    "district": "鼓楼区",
    "address": "北环中路21号(万利会旁)",
    "lng": 119.298883,
    "lat": 26.107103,
    "tel": "[]"
  },
  {
    "id": "B0FFG7LQWS",
    "name": "永丰林东如清汤面店",
    "type": "Restaurant",
    "typecode": "050100",
    "province": "福建省",
    "city": "福州市",
    "district": "闽侯县",
    "address": "永丰村",
    "lng": 119.23949,
    "lat": 26.106738,
    "tel": "[]"
  },
  {
    "id": "B0FFG1EGWE",
    "name": "关中道(公园路店)",
    "type": "Restaurant",
    "typecode": "050100",
    "province": "福建省",
    "city": "福州市",
    "district": "仓山区",
    "address": "公园西路15-29号",
    "lng": 119.317915,
    "lat": 26.041038,
    "tel": "15359198961"
  },
  {
    "id": "B0FFFQ0ZLJ",
    "name": "石竹草兔馆(首创店)",
    "type": "Restaurant",
    "typecode": "050100",
    "province": "福建省",
    "city": "福州市",
    "district": "永泰县",
    "address": "城峰镇站前大道3号永泰美食街",
    "lng": 118.942951,
    "lat": 25.856827,
    "tel": "0591-24825566"
  },
  {
    "id": "B024F0VFWS",
    "name": "依成餐馆",
    "type": "Restaurant",
    "typecode": "050100",
    "province": "福建省",
    "city": "福州市",
    "district": "台江区",
    "address": "八一七中路189-7-8号(近双福花园)",
    "lng": 119.304847,
    "lat": 26.071794,
    "tel": "0591-83368785;13509325083"
  },
  {
    "id": "B024F0VBZJ",
    "name": "云生海鲜楼",
    "type": "Restaurant",
    "typecode": "050119",
    "province": "福建省",
    "city": "福州市",
    "district": "平潭县",
    "address": "流水村250-1号",
    "lng": 119.833008,
    "lat": 25.565382,
    "tel": "0591-24341598;18059061598"
  },
  {
    "id": "B024F05Y5X",
    "name": "金榜食府",
    "type": "Restaurant",
    "typecode": "050119",
    "province": "福建省",
    "city": "福州市",
    "district": "晋安区",
    "address": "秀峰路185号枫丹白露小区门口(近枫丹白鹭)",
    "lng": 119.318963,
    "lat": 26.131198,
    "tel": "0591-87955777;19906929129"
  },
  {
    "id": "B024F05V5R",
    "name": "食锦斋",
    "type": "Restaurant",
    "typecode": "050600",
    "province": "福建省",
    "city": "福州市",
    "district": "晋安区",
    "address": "东门塔头路332号(世欧澜山楼盘,原锅炉厂对面)",
    "lng": 119.32342,
    "lat": 26.090712,
    "tel": "0591-87300557;0591-87515500"
  },
  {
    "id": "B024F05E9B",
    "name": "筑地本铺料理店",
    "type": "Restaurant",
    "typecode": "050202",
    "province": "福建省",
    "city": "福州市",
    "district": "仓山区",
    "address": "建新镇金山大道48号花乡明珠B区9号楼1-4店面",
    "lng": 119.265684,
    "lat": 26.054096,
    "tel": "0591-83055358;0591-83055378;13850182525"
  },
  {
    "id": "B0LGK1QHFD",
    "name": "蜀九鼎火锅(三盛i33店)",
    "type": "Restaurant",
    "typecode": "050117",
    "province": "福建省",
    "city": "福州市",
    "district": "晋安区",
    "address": "福峰路83号",
    "lng": 119.332308,
    "lat": 26.14437,
    "tel": "0591-83610555"
  },
  {
    "id": "B0LDT985JR",
    "name": "猫员外精酿酒馆.手工披萨(福州烟台山店)",
    "type": "Restaurant",
    "typecode": "050000",
    "province": "福建省",
    "city": "福州市",
    "district": "仓山区",
    "address": "前街道仓前路7号M19-01单元(佛寺巷上2楼右手第一家)",
    "lng": 119.312392,
    "lat": 26.045325,
    "tel": "18950265953"
  },
  {
    "id": "B0LDHDSQ3S",
    "name": "岐余食堂·中华料理(平潭吾悦广场店)",
    "type": "Restaurant",
    "typecode": "050000",
    "province": "福建省",
    "city": "福州市",
    "district": "平潭县",
    "address": "瑶竹南路11号平潭吾悦广场S1号楼171-1021商铺(一楼靠近2号门)",
    "lng": 119.761005,
    "lat": 25.508914,
    "tel": "18656375555"
  },
  {
    "id": "B0LAOHMCUL",
    "name": "小叫天泡椒活田鸡(长乐万星广场店)",
    "type": "Restaurant",
    "typecode": "050000",
    "province": "福建省",
    "city": "福州市",
    "district": "长乐区",
    "address": "吴航路988号万星广场三楼小叫天餐厅",
    "lng": 119.493207,
    "lat": 25.953256,
    "tel": "0591-22295557"
  },
  {
    "id": "B0LAJHQDV5",
    "name": "坡摊烤肉(罗源店)",
    "type": "Restaurant",
    "typecode": "050100",
    "province": "福建省",
    "city": "福州市",
    "district": "罗源县",
    "address": "罗川中路4-2号",
    "lng": 119.557707,
    "lat": 26.486431,
    "tel": "19536117281"
  },
  {
    "id": "B0KR76DGJN",
    "name": "上官糖炒栗子(津泰店)",
    "type": "Restaurant",
    "typecode": "060704|050000",
    "province": "福建省",
    "city": "福州市",
    "district": "鼓楼区",
    "address": "津泰路津泰新村7座02店面",
    "lng": 119.306028,
    "lat": 26.082007,
    "tel": "18059075730"
  },
  {
    "id": "B0KKCLLWDU",
    "name": "霸王茶姬(闽清天行大街店)",
    "type": "Restaurant",
    "typecode": "050700",
    "province": "福建省",
    "city": "福州市",
    "district": "闽清县",
    "address": "梅城镇天行大街1-164号",
    "lng": 118.859953,
    "lat": 26.221431,
    "tel": "19905008281"
  },
  {
    "id": "B0KG9157U5",
    "name": "凡塔斯牛排自助餐厅(宝龙二店)",
    "type": "Restaurant",
    "typecode": "050211",
    "province": "福建省",
    "city": "福州市",
    "district": "台江区",
    "address": "宝龙城市广场二楼丫霸街(宁化地铁站B西口步行210米)",
    "lng": 119.290781,
    "lat": 26.061743,
    "tel": "[]"
  },
  {
    "id": "B0KD1588MW",
    "name": "小叫天泡椒活田鸡(长冠城店)",
    "type": "Restaurant",
    "typecode": "050000",
    "province": "福建省",
    "city": "福州市",
    "district": "鼓楼区",
    "address": "北二环西路78号一号楼一层",
    "lng": 119.293272,
    "lat": 26.107961,
    "tel": "0591-83616819"
  },
  {
    "id": "B0K3M7OCO7",
    "name": "小叫天泡椒活田鸡(金山龙湖天序店)",
    "type": "Restaurant",
    "typecode": "050102",
    "province": "福建省",
    "city": "福州市",
    "district": "仓山区",
    "address": "金山街道凤岗路南侧玖序公馆S4号楼1层小叫天餐厅",
    "lng": 119.253267,
    "lat": 26.037584,
    "tel": "0591-87891822"
  },
  {
    "id": "B0K2NL9HWS",
    "name": "麺屋猪一(东二环泰禾店)",
    "type": "Restaurant",
    "typecode": "050202",
    "province": "福建省",
    "city": "福州市",
    "district": "晋安区",
    "address": "岳峰镇横屿路15号东二环泰禾城市广场6号楼108",
    "lng": 119.335717,
    "lat": 26.092397,
    "tel": "18759162953"
  },
  {
    "id": "B0K1TCUPBS",
    "name": "蜀九鼎毛肚火锅(连江店)",
    "type": "Restaurant",
    "typecode": "050117",
    "province": "福建省",
    "city": "福州市",
    "district": "连江县",
    "address": "文山北路6-88号",
    "lng": 119.535201,
    "lat": 26.21171,
    "tel": "0591-26269777"
  },
  {
    "id": "B0K1NCOPGN",
    "name": "文赣楼(福州站店)",
    "type": "Restaurant",
    "typecode": "050000",
    "province": "福建省",
    "city": "福州市",
    "district": "晋安区",
    "address": "西园路161号厚山创意园延陵楼1-2层",
    "lng": 119.32767,
    "lat": 26.124239,
    "tel": "[]"
  },
  {
    "id": "B0K0M7RZ62",
    "name": "茉莉奶白(福州连江万星广场店)",
    "type": "Restaurant",
    "typecode": "050700",
    "province": "福建省",
    "city": "福州市",
    "district": "连江县",
    "address": "丹凤东路41号万星商业广场A区3号楼1层3110号铺",
    "lng": 119.549728,
    "lat": 26.21229,
    "tel": "13950367635"
  },
  {
    "id": "B0IKVMD8BY",
    "name": "唐沫茶兮(福清东百利桥古街店)",
    "type": "Restaurant",
    "typecode": "050700",
    "province": "福建省",
    "city": "福州市",
    "district": "福清市",
    "address": "利桥古街303号B2区",
    "lng": 119.384235,
    "lat": 25.715619,
    "tel": "18120922017"
  },
  {
    "id": "B0GK1HWYIO",
    "name": "袁记云饺(福州市台江区群升国际店)",
    "type": "Restaurant",
    "typecode": "050118",
    "province": "福建省",
    "city": "福州市",
    "district": "台江区",
    "address": "铺前顶路19号群升国际G区",
    "lng": 119.305709,
    "lat": 26.06029,
    "tel": "15985770376"
  },
  {
    "id": "B0GDLMI2TK",
    "name": "草本汤(富力中心店)",
    "type": "Restaurant",
    "typecode": "050100",
    "province": "福建省",
    "city": "福州市",
    "district": "台江区",
    "address": "宁化街道祥坂路11号富力中心c区",
    "lng": 119.279336,
    "lat": 26.060859,
    "tel": "18650762070"
  },
  {
    "id": "B0LG97X4AL",
    "name": "星财记香港茶冰厅(中骏世界城店)",
    "type": "Restaurant",
    "typecode": "050000",
    "province": "福建省",
    "city": "福州市",
    "district": "仓山区",
    "address": "首山路298号",
    "lng": 119.321925,
    "lat": 26.032125,
    "tel": "13779987094"
  },
  {
    "id": "B0KRHOKJDQ",
    "name": "湘饱饱爆炒生料湖南下饭菜",
    "type": "Restaurant",
    "typecode": "050100",
    "province": "福建省",
    "city": "福州市",
    "district": "晋安区",
    "address": "东泰禾广场星光大道13号楼二层229号店铺",
    "lng": 119.334419,
    "lat": 26.09198,
    "tel": "18105913517"
  },
  {
    "id": "B0KK2BVV7W",
    "name": "大胡子冰可可(中骏世界城)",
    "type": "Restaurant",
    "typecode": "050700",
    "province": "福建省",
    "city": "福州市",
    "district": "仓山区",
    "address": "利民路11号福州中骏世界城负一楼ZB109(庙东排骨隔壁)",
    "lng": 119.321822,
    "lat": 26.031757,
    "tel": "13075981716"
  },
  {
    "id": "B0KAORTPBL",
    "name": "小叫天泡椒活田鸡(世欧广场店)",
    "type": "Restaurant",
    "typecode": "050000",
    "province": "福建省",
    "city": "福州市",
    "district": "晋安区",
    "address": "王庄街道长河路88号世欧广场南区3楼(小叫天餐厅)",
    "lng": 119.326782,
    "lat": 26.069666,
    "tel": "0591-83617785"
  },
  {
    "id": "B0K33R6PPJ",
    "name": "mua摩造汉堡(三迪店)",
    "type": "Restaurant",
    "typecode": "050300",
    "province": "福建省",
    "city": "福州市",
    "district": "台江区",
    "address": "振武路74号三迪联邦中心欣天地商场1F外侧商铺",
    "lng": 119.285033,
    "lat": 26.05642,
    "tel": "17659060332"
  },
  {
    "id": "B0K2350G6G",
    "name": "西塔老太太泥炉烤肉(福清清昌万达广场店)",
    "type": "Restaurant",
    "typecode": "050100",
    "province": "福建省",
    "city": "福州市",
    "district": "福清市",
    "address": "清昌万达广场三楼3020",
    "lng": 119.349725,
    "lat": 25.715825,
    "tel": "0591-86557675"
  },
  {
    "id": "B0K0V5FVZH",
    "name": "爷爷不泡茶NOYEYENOTEA(福州长乐万星广场店)",
    "type": "Restaurant",
    "typecode": "050700",
    "province": "福建省",
    "city": "福州市",
    "district": "长乐区",
    "address": "航城吴航路988号161室",
    "lng": 119.493825,
    "lat": 25.953725,
    "tel": "19523097223"
  },
  {
    "id": "B024F05N97",
    "name": "长山湖酒店",
    "type": "Restaurant",
    "typecode": "100102|050000",
    "province": "福建省",
    "city": "福州市",
    "district": "长乐区",
    "address": "广场路19号",
    "lng": 119.500257,
    "lat": 25.956849,
    "tel": "0591-27957777;0591-28888888"
  },
  {
    "id": "B024F05BKY",
    "name": "瑞鑫大酒店",
    "type": "Restaurant",
    "typecode": "100103|050000",
    "province": "福建省",
    "city": "福州市",
    "district": "福清市",
    "address": "清昌大道38号",
    "lng": 119.356667,
    "lat": 25.715316,
    "tel": "0591-38766666"
  },
  {
    "id": "B0LAMS3298",
    "name": "KOI Thé(万象城茶手作店)",
    "type": "Restaurant",
    "typecode": "050700",
    "province": "福建省",
    "city": "福州市",
    "district": "鼓楼区",
    "address": "洪山园路5号福州万象城3层L323c号商铺",
    "lng": 119.2776,
    "lat": 26.075427,
    "tel": "0591-83610315"
  },
  {
    "id": "B0LA5ARG27",
    "name": "飞鸡日记(中央第五街店)",
    "type": "Restaurant",
    "typecode": "050000",
    "province": "福建省",
    "city": "福州市",
    "district": "台江区",
    "address": "工业路360号中央第五街2号楼一层27铺",
    "lng": 119.292248,
    "lat": 26.063964,
    "tel": "13276081330"
  },
  {
    "id": "B0KKNR8SW8",
    "name": "潮正和潮汕牛肉火锅(平潭店)",
    "type": "Restaurant",
    "typecode": "050100",
    "province": "福建省",
    "city": "福州市",
    "district": "平潭县",
    "address": "海坛东路与西航路交叉口东南40米",
    "lng": 119.797037,
    "lat": 25.49826,
    "tel": "19396011889"
  },
  {
    "id": "B0JK6MQXHX",
    "name": "某有茶(世欧广场店)",
    "type": "Restaurant",
    "typecode": "050700",
    "province": "福建省",
    "city": "福州市",
    "district": "晋安区",
    "address": "长河路88号世欧广场南区F1层",
    "lng": 119.326847,
    "lat": 26.069397,
    "tel": "15705919764;18505078179"
  },
  {
    "id": "B0H2A774N7",
    "name": "小叫天泡椒活田鸡(罗源世纪金源店)",
    "type": "Restaurant",
    "typecode": "050100",
    "province": "福建省",
    "city": "福州市",
    "district": "罗源县",
    "address": "滨海新城世纪金源购物中心A区3层004号铺小叫天餐厅",
    "lng": 119.594689,
    "lat": 26.47062,
    "tel": "0591-26995677"
  },
  {
    "id": "B024F0595D",
    "name": "闽江饭店",
    "type": "Restaurant",
    "typecode": "100103|050000",
    "province": "福建省",
    "city": "福州市",
    "district": "鼓楼区",
    "address": "五四路130号",
    "lng": 119.305666,
    "lat": 26.092694,
    "tel": "0591-87557895"
  },
  {
    "id": "B0FFJ9HOLI",
    "name": "十二中老伯炒面店(临江新天地烟山苑店)",
    "type": "Restaurant",
    "typecode": "050100",
    "province": "福建省",
    "city": "福州市",
    "district": "仓山区",
    "address": "下渡街道朝阳路215号南江滨旧屋区改造(临江新天地)二地块3号楼1层12店面",
    "lng": 119.328111,
    "lat": 26.044471,
    "tel": "13860684727;18060797961"
  },
  {
    "id": "B0FFIDOKO7",
    "name": "觅云云南菜(驿境·恒力博纳店)",
    "type": "Restaurant",
    "typecode": "050114",
    "province": "福建省",
    "city": "福州市",
    "district": "鼓楼区",
    "address": "北二环中路恒力博纳南区3层",
    "lng": 119.299417,
    "lat": 26.109026,
    "tel": "0591-83317217"
  },
  {
    "id": "B024F0YSCK",
    "name": "老牌炖罐生炊海鲜",
    "type": "Restaurant",
    "typecode": "050100",
    "province": "福建省",
    "city": "福州市",
    "district": "晋安区",
    "address": "鼓山镇盛天现代城27号07店面",
    "lng": 119.350947,
    "lat": 26.069388,
    "tel": "13559955756"
  },
  {
    "id": "B0FFI9LJ47",
    "name": "福州·非遗老字号·彬德桥时粿铺",
    "type": "Restaurant",
    "typecode": "050000",
    "province": "福建省",
    "city": "福州市",
    "district": "台江区",
    "address": "南园路19-2号(近苍霞新城嘉兴园公交站)",
    "lng": 119.303579,
    "lat": 26.049688,
    "tel": "0591-83252501;13788877337"
  },
  {
    "id": "B0FFHNDCRY",
    "name": "龙江鲜捞店(龙江路店)",
    "type": "Restaurant",
    "typecode": "050100",
    "province": "福建省",
    "city": "福州市",
    "district": "仓山区",
    "address": "龙江路2-4",
    "lng": 119.378936,
    "lat": 25.97944,
    "tel": "13850123086"
  },
  {
    "id": "B0FFGC6NAS",
    "name": "依平烧烤",
    "type": "Restaurant",
    "typecode": "050000",
    "province": "福建省",
    "city": "福州市",
    "district": "仓山区",
    "address": "城门镇龙江路78号",
    "lng": 119.376633,
    "lat": 25.978391,
    "tel": "18060827728;18650461113"
  },
  {
    "id": "B024F0VB7S",
    "name": "甜缘轻食",
    "type": "Restaurant",
    "typecode": "050900",
    "province": "福建省",
    "city": "福州市",
    "district": "长乐区",
    "address": "南山路16-24号",
    "lng": 119.521357,
    "lat": 25.957638,
    "tel": "13489027700"
  },
  {
    "id": "B024F007A3",
    "name": "天狗山传统料理(时代金典店)",
    "type": "Restaurant",
    "typecode": "050202",
    "province": "福建省",
    "city": "福州市",
    "district": "鼓楼区",
    "address": "北二环中路131号",
    "lng": 119.303752,
    "lat": 26.10838,
    "tel": "0591-87761666"
  },
  {
    "id": "B0FFHHKKR5",
    "name": "咖啡院子",
    "type": "Restaurant",
    "typecode": "050500",
    "province": "福建省",
    "city": "福州市",
    "district": "仓山区",
    "address": "麦园路52号(十六中对面停车场大院内右侧)",
    "lng": 119.315357,
    "lat": 26.043942,
    "tel": "13609518855"
  },
  {
    "id": "B024F0XZMR",
    "name": "牛恋忘返特色火锅店",
    "type": "Restaurant",
    "typecode": "050117",
    "province": "福建省",
    "city": "福州市",
    "district": "仓山区",
    "address": "榕城广场闽江大道150号融侨水乡对面榕城广场旁",
    "lng": 119.270476,
    "lat": 26.052669,
    "tel": "15980611475"
  },
  {
    "id": "B024F0UBEK",
    "name": "家福大饭店KTⅤ",
    "type": "Restaurant",
    "typecode": "050100|071400",
    "province": "福建省",
    "city": "福州市",
    "district": "罗源县",
    "address": "凤山镇凤南西路5-7号-,104国道旁边",
    "lng": 119.549904,
    "lat": 26.483432,
    "tel": "0591-26835088;0591-26858128"
  },
  {
    "id": "B0FFIXJN7O",
    "name": "村上寿司(好景城店)",
    "type": "Restaurant",
    "typecode": "050202",
    "province": "福建省",
    "city": "福州市",
    "district": "仓山区",
    "address": "建新镇高宅路108号好景城2号楼1层03店面-1",
    "lng": 119.263544,
    "lat": 26.02958,
    "tel": "18350059681"
  },
  {
    "id": "B0FFHR33NT",
    "name": "河南老烩面(西庄路店)",
    "type": "Restaurant",
    "typecode": "050100",
    "province": "福建省",
    "city": "福州市",
    "district": "晋安区",
    "address": "西庄路88-6、88-7号",
    "lng": 119.290926,
    "lat": 26.135175,
    "tel": "13950397996;15980706185"
  },
  {
    "id": "B0FFHQ1VQI",
    "name": "钦榕港式茶餐厅(群升店)",
    "type": "Restaurant",
    "typecode": "050101",
    "province": "福建省",
    "city": "福州市",
    "district": "台江区",
    "address": "群升汇5层",
    "lng": 119.305045,
    "lat": 26.059194,
    "tel": "0591-88553333;0591-88702222;18059103517"
  },
  {
    "id": "B0FFHNZH2Q",
    "name": "邱记牛肉(凤祥小区店)",
    "type": "Restaurant",
    "typecode": "050100",
    "province": "福建省",
    "city": "福州市",
    "district": "马尾区",
    "address": "沿山东路90-1号",
    "lng": 119.45514,
    "lat": 25.990119,
    "tel": "13015786686;13075815266"
  },
  {
    "id": "B0FFHC6M8K",
    "name": "半岛翡丽海鲜自助餐厅",
    "type": "Restaurant",
    "typecode": "050119",
    "province": "福建省",
    "city": "福州市",
    "district": "鼓楼区",
    "address": "观风亭街23号公正台湾美食城2层",
    "lng": 119.303101,
    "lat": 26.094682,
    "tel": "0591-83353888;0591-83678999"
  },
  {
    "id": "B0FFGNQR19",
    "name": "十三妹咸时店",
    "type": "Restaurant",
    "typecode": "050118",
    "province": "福建省",
    "city": "福州市",
    "district": "平潭县",
    "address": "建工路28号",
    "lng": 119.785908,
    "lat": 25.501971,
    "tel": "0591-24312128;17758961212"
  },
  {
    "id": "B0FFFOYK5L",
    "name": "陌里咖啡(仓山店)",
    "type": "Restaurant",
    "typecode": "050500",
    "province": "福建省",
    "city": "福州市",
    "district": "仓山区",
    "address": "首山路10号",
    "lng": 119.314087,
    "lat": 26.035235,
    "tel": "0591-83510321"
  },
  {
    "id": "B0FFFHANGV",
    "name": "富黎华海鲜大酒楼(金山店)",
    "type": "Restaurant",
    "typecode": "050119",
    "province": "福建省",
    "city": "福州市",
    "district": "仓山区",
    "address": "金山街道燎原路161号",
    "lng": 119.28353,
    "lat": 26.044977,
    "tel": "0591-22205777;0591-22550777"
  },
  {
    "id": "B0FFFFW2K0",
    "name": "荷雅素莳(上下杭店)",
    "type": "Restaurant",
    "typecode": "050120",
    "province": "福建省",
    "city": "福州市",
    "district": "台江区",
    "address": "台江区上杭路怡丰花园D座底层15号48号",
    "lng": 119.30673,
    "lat": 26.055028,
    "tel": "18060833905"
  },
  {
    "id": "B0FFF3IUOJ",
    "name": "韦记螺蛳粉(文锦佳园店)",
    "type": "Restaurant",
    "typecode": "050100",
    "province": "福建省",
    "city": "福州市",
    "district": "台江区",
    "address": "西环南路116号海景花园二区3号楼10店面",
    "lng": 119.28874,
    "lat": 26.056716,
    "tel": "13799980016;18065010287"
  },
  {
    "id": "B024F0XZQS",
    "name": "味滋初美蛙脆鱼(红庆路店)",
    "type": "Restaurant",
    "typecode": "050117",
    "province": "福建省",
    "city": "福州市",
    "district": "台江区",
    "address": "红庆路21-7号味滋初丽姐金椒脆鱼福州美食",
    "lng": 119.301753,
    "lat": 26.063644,
    "tel": "13675033120"
  },
  {
    "id": "B024F05AU9",
    "name": "尚干依心扁肉拌面(尚干总店)",
    "type": "Restaurant",
    "typecode": "050100",
    "province": "福建省",
    "city": "福州市",
    "district": "闽侯县",
    "address": "尚干镇祥谦路293-1号",
    "lng": 119.375667,
    "lat": 25.924646,
    "tel": "18606911716"
  },
  {
    "id": "B024F04BGK",
    "name": "新天然居筒骨店(六一分店)",
    "type": "Restaurant",
    "typecode": "050117",
    "province": "福建省",
    "city": "福州市",
    "district": "晋安区",
    "address": "六一北路216号",
    "lng": 119.316009,
    "lat": 26.096891,
    "tel": "0591-83445566;0591-87596228"
  },
  {
    "id": "B0FFHMBIVV",
    "name": "宝记潮牛庄汕头牛肉(联通花园店)",
    "type": "Restaurant",
    "typecode": "050117",
    "province": "福建省",
    "city": "福州市",
    "district": "仓山区",
    "address": "建新镇闽江大道65号联通花园",
    "lng": 119.251076,
    "lat": 26.072283,
    "tel": "13665048115;15606028989"
  },
  {
    "id": "B0FFJ14KZ9",
    "name": "福州几松酒店(宝龙城市广场店)",
    "type": "Restaurant",
    "typecode": "050202|100100",
    "province": "福建省",
    "city": "福州市",
    "district": "台江区",
    "address": "工业路87号格林兰锦小区1-2号连接体2层07",
    "lng": 119.299367,
    "lat": 26.062192,
    "tel": "0591-62171177"
  },
  {
    "id": "B0FFLJCDRM",
    "name": "国惠大酒店中餐厅(福清店)",
    "type": "Restaurant",
    "typecode": "050100|100100",
    "province": "福建省",
    "city": "福州市",
    "district": "福清市",
    "address": "宏福路与福融路交叉口西南100米",
    "lng": 119.338499,
    "lat": 25.704178,
    "tel": "13635283160"
  },
  {
    "id": "B0FFHBVXQB",
    "name": "福州天元国际威斯汀酒店",
    "type": "Restaurant",
    "typecode": "100100|050000",
    "province": "福建省",
    "city": "福州市",
    "district": "台江区",
    "address": "江滨中大道366号",
    "lng": 119.342241,
    "lat": 26.051283,
    "tel": "0591-88111111"
  },
  {
    "id": "B0LU15FY1N",
    "name": "盛海楼?客家菜馆?夜宵",
    "type": "Restaurant",
    "typecode": "050100",
    "province": "福建省",
    "city": "福州市",
    "district": "鼓楼区",
    "address": "北环西路78号1楼店面",
    "lng": 119.292968,
    "lat": 26.107929,
    "tel": "13906932609"
  },
  {
    "id": "B0LGURHWUL",
    "name": "喜泽荟闽北光泽菜(华林店)",
    "type": "Restaurant",
    "typecode": "050100",
    "province": "福建省",
    "city": "福州市",
    "district": "鼓楼区",
    "address": "华林路203-10号闽台大酒店西侧楼一,二层",
    "lng": 119.310045,
    "lat": 26.102829,
    "tel": "0591-87511795"
  },
  {
    "id": "B0LGNRWOWG",
    "name": "紫姨娘·干蒸菜(宝龙店)",
    "type": "Restaurant",
    "typecode": "050000",
    "province": "福建省",
    "city": "福州市",
    "district": "台江区",
    "address": "Suning Max苏宁易购(福州宝龙城市广场店)",
    "lng": 119.292137,
    "lat": 26.06096,
    "tel": "13959181556"
  },
  {
    "id": "B0LGNAW5K8",
    "name": "老友炖罐(天悦会温泉店)",
    "type": "Restaurant",
    "typecode": "050100",
    "province": "福建省",
    "city": "福州市",
    "district": "仓山区",
    "address": "闽江大道169号水乡别墅二期商业综合楼一层天悦会温泉酒店楼下",
    "lng": 119.277193,
    "lat": 26.046629,
    "tel": "18060807369"
  },
  {
    "id": "B0LDOH1I8Q",
    "name": "煮煮卤肉鹏(华润置地中心三期店)",
    "type": "Restaurant",
    "typecode": "050000",
    "province": "福建省",
    "city": "福州市",
    "district": "鼓楼区",
    "address": "洪山园路华润万象城三期S11号一层10-11商铺",
    "lng": 119.278355,
    "lat": 26.076457,
    "tel": "18060529002"
  },
  {
    "id": "B0LATR7GEW",
    "name": "汕味鲜桑拿鸡",
    "type": "Restaurant",
    "typecode": "050100",
    "province": "福建省",
    "city": "福州市",
    "district": "晋安区",
    "address": "六一北路147号",
    "lng": 119.316836,
    "lat": 26.098894,
    "tel": "[]"
  },
  {
    "id": "B0KUGDL8YY",
    "name": "匠心鲜捞-樟林店",
    "type": "Restaurant",
    "typecode": "050100",
    "province": "福建省",
    "city": "福州市",
    "district": "晋安区",
    "address": "福兴大道东方石艺城三期安民巷6号",
    "lng": 119.365023,
    "lat": 26.074319,
    "tel": "18906917513"
  },
  {
    "id": "B0KKKRQSEA",
    "name": "在咖啡INCOFFEE(ICC升龙环球中心店)",
    "type": "Restaurant",
    "typecode": "050500",
    "province": "福建省",
    "city": "福州市",
    "district": "台江区",
    "address": "ICC升龙环球大厦一层(浦发银行旁)",
    "lng": 119.285925,
    "lat": 26.058743,
    "tel": "15959188388"
  },
  {
    "id": "B0KK37KXCR",
    "name": "雍莆会新派莆田菜(万福中心店)",
    "type": "Restaurant",
    "typecode": "050100",
    "province": "福建省",
    "city": "福州市",
    "district": "闽侯县",
    "address": "科技东路9号万福中心1号楼东裙楼2层",
    "lng": 119.217225,
    "lat": 26.041177,
    "tel": "15859122333"
  },
  {
    "id": "B0KBFUTGBN",
    "name": "嫩哥生料啫啫煲(长乐店)",
    "type": "Restaurant",
    "typecode": "050000",
    "province": "福建省",
    "city": "福州市",
    "district": "长乐区",
    "address": "郑和中路286号(十洋地铁站B西北口步行460米)",
    "lng": 119.510032,
    "lat": 25.958435,
    "tel": "13075866807"
  },
  {
    "id": "B0K63SNVXL",
    "name": "吴美丽贵州酸汤牛肉火锅",
    "type": "Restaurant",
    "typecode": "050117",
    "province": "福建省",
    "city": "福州市",
    "district": "平潭县",
    "address": "海坛东路91号",
    "lng": 119.799671,
    "lat": 25.49692,
    "tel": "0591-23157556"
  },
  {
    "id": "B0K2ZU6ADH",
    "name": "围串烧烤(金辉店)",
    "type": "Restaurant",
    "typecode": "050100",
    "province": "福建省",
    "city": "福州市",
    "district": "仓山区",
    "address": "南社一路13-13号",
    "lng": 119.347361,
    "lat": 26.037702,
    "tel": "19959197677"
  },
  {
    "id": "B0K2FLPR1C",
    "name": "围串烧烤(公园道店)",
    "type": "Restaurant",
    "typecode": "050100",
    "province": "福建省",
    "city": "福州市",
    "district": "仓山区",
    "address": "金桔路95号",
    "lng": 119.240435,
    "lat": 26.042757,
    "tel": "19959193977"
  },
  {
    "id": "B0K1GYRRHF",
    "name": "串不凡·鲜货烧烤",
    "type": "Restaurant",
    "typecode": "050100",
    "province": "福建省",
    "city": "福州市",
    "district": "闽侯县",
    "address": "上街镇国宾大道223号博士后家园B区2-2107-2108",
    "lng": 119.202314,
    "lat": 26.067421,
    "tel": "13358211858"
  },
  {
    "id": "B0K019CH9J",
    "name": "蟹池巷肉蟹煲(福州中骏店)",
    "type": "Restaurant",
    "typecode": "050100",
    "province": "福建省",
    "city": "福州市",
    "district": "仓山区",
    "address": "中骏世界城5楼515",
    "lng": 119.321998,
    "lat": 26.03173,
    "tel": "13950392878"
  },
  {
    "id": "B0JRMMNUFA",
    "name": "鱼颂-鲜作石锅鱼(三盛i33城市广场店)",
    "type": "Restaurant",
    "typecode": "050100",
    "province": "福建省",
    "city": "福州市",
    "district": "晋安区",
    "address": "新店镇福峰路68号i33城市广场5号楼2楼209-210",
    "lng": 119.333523,
    "lat": 26.14382,
    "tel": "0591-88558386;19959385386"
  },
  {
    "id": "B0JGUMEOKV",
    "name": "Alula",
    "type": "Restaurant",
    "typecode": "050000",
    "province": "福建省",
    "city": "福州市",
    "district": "仓山区",
    "address": "冠浦路23号",
    "lng": 119.270272,
    "lat": 26.024028,
    "tel": "18965059850"
  },
  {
    "id": "B0JBY7UIOT",
    "name": "翊枫串局(福州三迪欣天地商场店)",
    "type": "Restaurant",
    "typecode": "050118",
    "province": "福建省",
    "city": "福州市",
    "district": "台江区",
    "address": "三迪中心·希尔湾",
    "lng": 119.285352,
    "lat": 26.056148,
    "tel": "17359020890"
  },
  {
    "id": "B0J2N7L0BK",
    "name": "天悦会海鲜姿造",
    "type": "Restaurant",
    "typecode": "050100",
    "province": "福建省",
    "city": "福州市",
    "district": "仓山区",
    "address": "依强金谷北门旁(马榕地铁站A北口步行140米)",
    "lng": 119.257968,
    "lat": 26.056913,
    "tel": "0591-83867777"
  },
  {
    "id": "B0J2D5OBON",
    "name": "四季汇餐厅(宏盛中心店)",
    "type": "Restaurant",
    "typecode": "050100",
    "province": "福建省",
    "city": "福州市",
    "district": "闽侯县",
    "address": "高新大道13号宏盛中心F1层",
    "lng": 119.218567,
    "lat": 26.033853,
    "tel": "13615019180"
  },
  {
    "id": "B0J0ZU47ZK",
    "name": "叶记潮汕牛肉火锅(螺洲店)",
    "type": "Restaurant",
    "typecode": "050000",
    "province": "福建省",
    "city": "福州市",
    "district": "仓山区",
    "address": "大浦路9号19-1栋108店",
    "lng": 119.353607,
    "lat": 25.995076,
    "tel": "18059126333"
  },
  {
    "id": "B0J0PH9V4F",
    "name": "鼎鲜闽东滩涂海鲜(万达广场店)",
    "type": "Restaurant",
    "typecode": "050000",
    "province": "福建省",
    "city": "福州市",
    "district": "台江区",
    "address": "鳌江路8号万达广场福州台江店2F层",
    "lng": 119.341417,
    "lat": 26.051657,
    "tel": "0591-88230713"
  },
  {
    "id": "B0IDL7ELG0",
    "name": "彭辣鲜.小龙虾(东二环泰禾广场店)",
    "type": "Restaurant",
    "typecode": "050100",
    "province": "福建省",
    "city": "福州市",
    "district": "晋安区",
    "address": "东二环泰禾广场星光大道15号星109",
    "lng": 119.335622,
    "lat": 26.091586,
    "tel": "15806000007"
  },
  {
    "id": "B0HD47JYQ1",
    "name": "津岛屋·大胜水产(世欧彼岸城A区店)",
    "type": "Restaurant",
    "typecode": "050202",
    "province": "福建省",
    "city": "福州市",
    "district": "仓山区",
    "address": "卢滨支路59号(金山地铁站D口步行320米)",
    "lng": 119.263975,
    "lat": 26.045355,
    "tel": "19905910162"
  },
  {
    "id": "B0HBX7PXLN",
    "name": "臻客家客家菜·福建菜·邀请聚会(金山店)",
    "type": "Restaurant",
    "typecode": "050100",
    "province": "福建省",
    "city": "福州市",
    "district": "仓山区",
    "address": "杨周路21-7",
    "lng": 119.270058,
    "lat": 26.02914,
    "tel": "13559468788"
  },
  {
    "id": "B0H2H1JXIG",
    "name": "福州首开中庚聚龙精选酒店(香汇餐厅)",
    "type": "Restaurant",
    "typecode": "050000",
    "province": "福建省",
    "city": "福州市",
    "district": "鼓楼区",
    "address": "洪山镇凤湖路258号香开观海广场5号楼",
    "lng": 119.2632,
    "lat": 26.072184,
    "tel": "0591-62170168;0591-62799999"
  },
  {
    "id": "B0FFHXKA00",
    "name": "牛肥农庄",
    "type": "Restaurant",
    "typecode": "080500|050100",
    "province": "福建省",
    "city": "福州市",
    "district": "晋安区",
    "address": "宦溪镇宜夏村下乖22号",
    "lng": 119.393562,
    "lat": 26.094468,
    "tel": "13599391153"
  },
  {
    "id": "B0FFHGTC0N",
    "name": "立日有肉松(澳门路店)",
    "type": "Restaurant",
    "typecode": "061200|050000",
    "province": "福建省",
    "city": "福州市",
    "district": "鼓楼区",
    "address": "澳门路7号(南门兜地铁站L口步行370米)",
    "lng": 119.297995,
    "lat": 26.078404,
    "tel": "0591-87616510"
  },
  {
    "id": "B0FFHYI7H1",
    "name": "破烧烤店(台亚岚店)",
    "type": "Restaurant",
    "typecode": "050118",
    "province": "福建省",
    "city": "福州市",
    "district": "平潭县",
    "address": "潭城镇康湖路1号城南学校正对面",
    "lng": 119.787802,
    "lat": 25.491424,
    "tel": "18859160300"
  },
  {
    "id": "B0FFGERKX1",
    "name": "老奇味(后田街店)",
    "type": "Restaurant",
    "typecode": "050100",
    "province": "福建省",
    "city": "福州市",
    "district": "台江区",
    "address": "河下街37号乃裳园1楼08店",
    "lng": 119.299053,
    "lat": 26.051448,
    "tel": "13110506958;18705085147"
  },
  {
    "id": "B0FFHBUNWB",
    "name": "小日子厨房(师大学生街店)",
    "type": "Restaurant",
    "typecode": "050202",
    "province": "福建省",
    "city": "福州市",
    "district": "仓山区",
    "address": "仓山镇长安路87号",
    "lng": 119.308543,
    "lat": 26.031129,
    "tel": "13763859561"
  },
  {
    "id": "B0FFHZ4YW6",
    "name": "金汤新天地",
    "type": "Restaurant",
    "typecode": "050000",
    "province": "福建省",
    "city": "福州市",
    "district": "鼓楼区",
    "address": "北环中路30号",
    "lng": 119.301241,
    "lat": 26.10934,
    "tel": "[]"
  },
  {
    "id": "B0LGB75I85",
    "name": "陈文鼎黑糖珍珠奶茶(中海寰宇天下店)",
    "type": "Restaurant",
    "typecode": "050700",
    "province": "福建省",
    "city": "福州市",
    "district": "闽侯县",
    "address": "中海寰宇天下50栋119店面(沪上阿姨隔壁喜姐炸串对面)",
    "lng": 119.212685,
    "lat": 26.050043,
    "tel": "17281158460"
  },
  {
    "id": "B0LAMCCHB8",
    "name": "陈文鼎·黑糖珍珠奶茶(十洋国际城店)",
    "type": "Restaurant",
    "typecode": "050700",
    "province": "福建省",
    "city": "福州市",
    "district": "长乐区",
    "address": "吴航郑和中路15号十洋国际城外广场临时场地31号",
    "lng": 119.516127,
    "lat": 25.957522,
    "tel": "18559851995"
  },
  {
    "id": "B0L615MUXZ",
    "name": "陈文鼎黑糖珍珠奶茶(福州五四in象店)",
    "type": "Restaurant",
    "typecode": "050700",
    "province": "福建省",
    "city": "福州市",
    "district": "晋安区",
    "address": "新店镇坂中路6号五四in象城市广场L1层2号门外沿街店面",
    "lng": 119.323881,
    "lat": 26.139673,
    "tel": "[]"
  },
  {
    "id": "B0KKBHT5HN",
    "name": "晓出糖水(鼓西路店)",
    "type": "Restaurant",
    "typecode": "050000",
    "province": "福建省",
    "city": "福州市",
    "district": "鼓楼区",
    "address": "鼓西街道鼓西路211号",
    "lng": 119.293472,
    "lat": 26.088546,
    "tel": "15880064408"
  },
  {
    "id": "B0KK27CY5G",
    "name": "陈文鼎·黑糖珍珠奶茶(闽侯正荣财富中心店)",
    "type": "Restaurant",
    "typecode": "050700",
    "province": "福建省",
    "city": "福州市",
    "district": "闽侯县",
    "address": "上街镇新保路",
    "lng": 119.219588,
    "lat": 26.019115,
    "tel": "15980612713"
  },
  {
    "id": "B0JBS4OJK0",
    "name": "森·秋膳OMAKASE(十洋店)",
    "type": "Restaurant",
    "typecode": "050202",
    "province": "福建省",
    "city": "福州市",
    "district": "长乐区",
    "address": "郑和中路1号十洋国际城F1层",
    "lng": 119.515854,
    "lat": 25.95737,
    "tel": "18050781887"
  },
  {
    "id": "B0IKT7N9PT",
    "name": "Nina.城市露营地",
    "type": "Restaurant",
    "typecode": "050700",
    "province": "福建省",
    "city": "福州市",
    "district": "连江县",
    "address": "文华路万家城市广场北广场",
    "lng": 119.534371,
    "lat": 26.211544,
    "tel": "18350005868"
  },
  {
    "id": "B0FFF04JYA",
    "name": "四乐轩古民居",
    "type": "Restaurant",
    "typecode": "050100",
    "province": "福建省",
    "city": "福州市",
    "district": "闽清县",
    "address": "坂东街四",
    "lng": 118.771813,
    "lat": 26.113766,
    "tel": "[]"
  },
  {
    "id": "B024F0U2K7",
    "name": "福州西湖大酒店咖啡厅",
    "type": "Restaurant",
    "typecode": "050500",
    "province": "福建省",
    "city": "福州市",
    "district": "鼓楼区",
    "address": "湖滨路158号福州西湖大酒店",
    "lng": 119.291381,
    "lat": 26.095888,
    "tel": "0591-87839888"
  },
  {
    "id": "B0FFIZD4ZY",
    "name": "金夜(哈尔滨烤串)",
    "type": "Restaurant",
    "typecode": "050118",
    "province": "福建省",
    "city": "福州市",
    "district": "台江区",
    "address": "新港街道国货东路48号",
    "lng": 119.321661,
    "lat": 26.065624,
    "tel": "18649768685"
  },
  {
    "id": "B0FFIBZWCZ",
    "name": "一同楼(五四路国际大厦店)",
    "type": "Restaurant",
    "typecode": "050100",
    "province": "福建省",
    "city": "福州市",
    "district": "鼓楼区",
    "address": "五四路210号国际大厦F2层",
    "lng": 119.306063,
    "lat": 26.096998,
    "tel": "17720790708"
  },
  {
    "id": "B0FFHVMVH3",
    "name": "百年潮膳·叶记牛肉火锅(福新路店)",
    "type": "Restaurant",
    "typecode": "050117",
    "province": "福建省",
    "city": "福州市",
    "district": "鼓楼区",
    "address": "福新路口华盛大厦二楼南座",
    "lng": 119.318586,
    "lat": 26.081123,
    "tel": "18960789558"
  },
  {
    "id": "B0FFHTTXS9",
    "name": "牛味道东北碳火烤肉(湖前总店)",
    "type": "Restaurant",
    "typecode": "050118",
    "province": "福建省",
    "city": "福州市",
    "district": "鼓楼区",
    "address": "江厝路80-6号",
    "lng": 119.294015,
    "lat": 26.113534,
    "tel": "18059089019"
  },
  {
    "id": "B0FFHJQ22J",
    "name": "焱匠旬物料理(恒力创富中心店)",
    "type": "Restaurant",
    "typecode": "050202",
    "province": "福建省",
    "city": "福州市",
    "district": "鼓楼区",
    "address": "鼓东街道营迹路69号恒力创富中心2层",
    "lng": 119.303355,
    "lat": 26.097555,
    "tel": "0591-86278777"
  },
  {
    "id": "B0FFHEAF2I",
    "name": "蛙舍(苏宁广场店)",
    "type": "Restaurant",
    "typecode": "050100",
    "province": "福建省",
    "city": "福州市",
    "district": "台江区",
    "address": "苏宁广场B区B1层B138铺位(祥坂地铁站D口步行160米)",
    "lng": 119.287892,
    "lat": 26.059809,
    "tel": "0591-87725757"
  },
  {
    "id": "B0FFGWUTM6",
    "name": "永安风味小吃",
    "type": "Restaurant",
    "typecode": "050118",
    "province": "福建省",
    "city": "福州市",
    "district": "鼓楼区",
    "address": "鼓西街道通湖路129号航龙花园6-7楼连体14号店",
    "lng": 119.291738,
    "lat": 26.086692,
    "tel": "13763851280;13860621995"
  },
  {
    "id": "B0FFGU70CD",
    "name": "依云煎包店",
    "type": "Restaurant",
    "typecode": "050000",
    "province": "福建省",
    "city": "福州市",
    "district": "闽侯县",
    "address": "上街镇新峰村新宅(张天龙宅)",
    "lng": 119.193872,
    "lat": 26.079592,
    "tel": "13609549211"
  },
  {
    "id": "B0FFGGCLFG",
    "name": "草原牧语(闽江大道店)",
    "type": "Restaurant",
    "typecode": "050117|050118",
    "province": "福建省",
    "city": "福州市",
    "district": "仓山区",
    "address": "闽江大道150号闽江春晓6号楼1店",
    "lng": 119.270036,
    "lat": 26.053124,
    "tel": "0591-87717887;13950424251"
  },
  {
    "id": "B0FFGFEU22",
    "name": "丹桂小院",
    "type": "Restaurant",
    "typecode": "050118",
    "province": "福建省",
    "city": "福州市",
    "district": "晋安区",
    "address": "茶园路46号",
    "lng": 119.31084,
    "lat": 26.111323,
    "tel": "0591-22857007"
  },
  {
    "id": "B0FFFZ5I14",
    "name": "福建农林大学金山校区第十一餐厅",
    "type": "Restaurant",
    "typecode": "050100",
    "province": "福建省",
    "city": "福州市",
    "district": "仓山区",
    "address": "上下店将乐路第十一餐厅",
    "lng": 119.237775,
    "lat": 26.078075,
    "tel": "18605919019"
  },
  {
    "id": "B0FFFFRRM5",
    "name": "新海潮酒楼(仓山店)",
    "type": "Restaurant",
    "typecode": "050101",
    "province": "福建省",
    "city": "福州市",
    "district": "仓山区",
    "address": "三高路115号迷你星酒店2层",
    "lng": 119.328417,
    "lat": 26.035816,
    "tel": "0591-38729777"
  },
  {
    "id": "B024F0VIHR",
    "name": "和谐苑·佛跳墙",
    "type": "Restaurant",
    "typecode": "050100",
    "province": "福建省",
    "city": "福州市",
    "district": "鼓楼区",
    "address": "卫前街三牧坊5号(福州一中后门)",
    "lng": 119.30189,
    "lat": 26.08821,
    "tel": "18060720695"
  },
  {
    "id": "B024F0VAVQ",
    "name": "庭院咖啡",
    "type": "Restaurant",
    "typecode": "050500",
    "province": "福建省",
    "city": "福州市",
    "district": "鼓楼区",
    "address": "西二环北路华桥新村6号",
    "lng": 119.28078,
    "lat": 26.088642,
    "tel": "13805054497"
  },
  {
    "id": "B024F05VSC",
    "name": "红星海鲜(冶山路店)",
    "type": "Restaurant",
    "typecode": "050119",
    "province": "福建省",
    "city": "福州市",
    "district": "鼓楼区",
    "address": "中山路23号商业大厦一层北向",
    "lng": 119.299872,
    "lat": 26.097006,
    "tel": "0591-88885655;13696807353"
  },
  {
    "id": "B024F05VD8",
    "name": "鼎壹汤包馆(茂泰大楼店)",
    "type": "Restaurant",
    "typecode": "050100",
    "province": "福建省",
    "city": "福州市",
    "district": "鼓楼区",
    "address": "乌山路35号茂泰大楼一层四号店面",
    "lng": 119.300947,
    "lat": 26.075831,
    "tel": "0591-28990616;13799960655"
  },
  {
    "id": "B024F04GTR",
    "name": "东北佬菜馆(东街店)",
    "type": "Restaurant",
    "typecode": "050113",
    "province": "福建省",
    "city": "福州市",
    "district": "鼓楼区",
    "address": "通湖路459号1层店面",
    "lng": 119.29534,
    "lat": 26.077212,
    "tel": "13860651517;15859102206"
  },
  {
    "id": "B024F05K68",
    "name": "香格里拉大堂酒廊(福州香格里拉中心店)",
    "type": "Restaurant",
    "typecode": "050000",
    "province": "福建省",
    "city": "福州市",
    "district": "鼓楼区",
    "address": "新权南路9号香格里拉大酒店1层(近五一广场)",
    "lng": 119.306219,
    "lat": 26.074244,
    "tel": "0591-83396824;0591-87988888"
  },
  {
    "id": "B0FFGV5DLH",
    "name": "福清哥光饼家",
    "type": "Restaurant",
    "typecode": "050300",
    "province": "福建省",
    "city": "福州市",
    "district": "福清市",
    "address": "湖滨霞2-12号",
    "lng": 119.379225,
    "lat": 25.717575,
    "tel": "13055900020;15059130303;15960040004"
  },
  {
    "id": "B0FFIKG4VA",
    "name": "飘香馆·脆鱼(乐三姐一店)",
    "type": "Restaurant",
    "typecode": "050102",
    "province": "福建省",
    "city": "福州市",
    "district": "仓山区",
    "address": "大坪路286号(仓山检察院旁边)",
    "lng": 119.33115,
    "lat": 26.042231,
    "tel": "0591-83467816;18605918266"
  },
  {
    "id": "B0FFI91BJ5",
    "name": "海天盛宴mini迷你(福州广场店)",
    "type": "Restaurant",
    "typecode": "050100",
    "province": "福建省",
    "city": "福州市",
    "district": "鼓楼区",
    "address": "五四路149号香榭丽都大厦二楼(福州广场内临近五四路)",
    "lng": 119.307929,
    "lat": 26.09732,
    "tel": "0591-88251717"
  },
  {
    "id": "B0FFHYGAGO",
    "name": "丁小懒口袋饭团(鼓东路店)",
    "type": "Restaurant",
    "typecode": "050100",
    "province": "福建省",
    "city": "福州市",
    "district": "鼓楼区",
    "address": "五显巷26号(东街口地铁站A东北口步行390米)",
    "lng": 119.300678,
    "lat": 26.089076,
    "tel": "13003836083;15005013484"
  },
  {
    "id": "B0FFHLH406",
    "name": "蒙特食品烧烤火锅",
    "type": "Restaurant",
    "typecode": "050100",
    "province": "福建省",
    "city": "福州市",
    "district": "仓山区",
    "address": "浦上大道地铁站D东南口步行310米",
    "lng": 119.275109,
    "lat": 26.031956,
    "tel": "15005903101"
  },
  {
    "id": "B0FFHDZEPF",
    "name": "韩国炸鸡啤酒魔力小鸡",
    "type": "Restaurant",
    "typecode": "050203",
    "province": "福建省",
    "city": "福州市",
    "district": "闽侯县",
    "address": "学院路世茂新天地5号楼107",
    "lng": 119.151519,
    "lat": 26.137142,
    "tel": "18606022364"
  },
  {
    "id": "B0FFGG7EH1",
    "name": "东兴牛肉王(鼓东路总店)",
    "type": "Restaurant",
    "typecode": "050100",
    "province": "福建省",
    "city": "福州市",
    "district": "鼓楼区",
    "address": "鼓东街道鼓东路78号",
    "lng": 119.301066,
    "lat": 26.089763,
    "tel": "0591-87538526;13763892588;13960831006"
  },
  {
    "id": "B0FFG7EZ2O",
    "name": "老福洲(斗东路店)",
    "type": "Restaurant",
    "typecode": "050110",
    "province": "福建省",
    "city": "福州市",
    "district": "鼓楼区",
    "address": "八一七中路297号",
    "lng": 119.303572,
    "lat": 26.074005,
    "tel": "0591-83616985;18150810858"
  },
  {
    "id": "B0FFG2M0QO",
    "name": "千贺食府(元一温泉花园店)",
    "type": "Restaurant",
    "typecode": "050101",
    "province": "福建省",
    "city": "福州市",
    "district": "台江区",
    "address": "群众东路99-6",
    "lng": 119.31667,
    "lat": 26.068602,
    "tel": "0591-87891555"
  },
  {
    "id": "B0FFG1IA5P",
    "name": "东北小馆",
    "type": "Restaurant",
    "typecode": "050118",
    "province": "福建省",
    "city": "福州市",
    "district": "仓山区",
    "address": "上山路19-19",
    "lng": 119.308698,
    "lat": 26.039768,
    "tel": "18305927977"
  },
  {
    "id": "B0FFFTDTG6",
    "name": "令狐冲烤鱼(连江店)",
    "type": "Restaurant",
    "typecode": "050118",
    "province": "福建省",
    "city": "福州市",
    "district": "连江县",
    "address": "丹凤花园二区西北门旁",
    "lng": 119.537807,
    "lat": 26.210748,
    "tel": "13960945449"
  },
  {
    "id": "B0FFFGMU75",
    "name": "石井元宵店",
    "type": "Restaurant",
    "typecode": "050100",
    "province": "福建省",
    "city": "福州市",
    "district": "鼓楼区",
    "address": "石井巷62号(东街口地铁站D口步行340米)",
    "lng": 119.301751,
    "lat": 26.084679,
    "tel": "0591-22561377;13313758396;18950472230"
  },
  {
    "id": "B0FFFFRSJW",
    "name": "开福饭店(佳和花园店)",
    "type": "Restaurant",
    "typecode": "050100",
    "province": "福建省",
    "city": "福州市",
    "district": "鼓楼区",
    "address": "古田支路150-6号(水部地铁站A口步行280米)",
    "lng": 119.316677,
    "lat": 26.077631,
    "tel": "0591-86211692;15880076303"
  },
  {
    "id": "B0FFFFRQEV",
    "name": "同利肉燕(道山路店)",
    "type": "Restaurant",
    "typecode": "050100",
    "province": "福建省",
    "city": "福州市",
    "district": "鼓楼区",
    "address": "道山路157号(南门兜地铁站L口步行440米)",
    "lng": 119.296921,
    "lat": 26.077761,
    "tel": "0591-87502881"
  },
  {
    "id": "B0FFF2R9QV",
    "name": "井榕大酒楼(广达路店)",
    "type": "Restaurant",
    "typecode": "050101",
    "province": "福建省",
    "city": "福州市",
    "district": "台江区",
    "address": "广达路438号双丰大厦二层",
    "lng": 119.308497,
    "lat": 26.058279,
    "tel": "0591-83357111"
  },
  {
    "id": "B024F0YTNZ",
    "name": "大海山(金港店)",
    "type": "Restaurant",
    "typecode": "050100",
    "province": "福建省",
    "city": "福州市",
    "district": "仓山区",
    "address": "建新镇金港路36号和园小区第29号楼1层04店面",
    "lng": 119.277964,
    "lat": 26.034179,
    "tel": "0591-88688822"
  },
  {
    "id": "B024F0XTJ5",
    "name": "阿平鲜牛骨火锅(鼓山店)",
    "type": "Restaurant",
    "typecode": "050117",
    "province": "福建省",
    "city": "福州市",
    "district": "晋安区",
    "address": "鼓山镇福光南路33号阿平鲜牛骨火锅店",
    "lng": 119.359302,
    "lat": 26.067008,
    "tel": "13696892931"
  },
  {
    "id": "B024F05U3C",
    "name": "膳园民俗酒楼(东煌花园店)",
    "type": "Restaurant",
    "typecode": "050101",
    "province": "福建省",
    "city": "福州市",
    "district": "台江区",
    "address": "西二环南路东煌花园1号楼",
    "lng": 119.290157,
    "lat": 26.056386,
    "tel": "0591-88916777;0591-88917666"
  },
  {
    "id": "B024F05SBJ",
    "name": "登兴鱼丸店",
    "type": "Restaurant",
    "typecode": "050100",
    "province": "福建省",
    "city": "福州市",
    "district": "鼓楼区",
    "address": "庆城路31号(省立医院地铁站B2西南口步行440米)",
    "lng": 119.305117,
    "lat": 26.08867,
    "tel": "0591-87531027;13305909505;15394416855"
  },
  {
    "id": "B024F05S37",
    "name": "东北风味思缘食府(对湖路店)",
    "type": "Restaurant",
    "typecode": "050113",
    "province": "福建省",
    "city": "福州市",
    "district": "仓山区",
    "address": "对湖路35-2号",
    "lng": 119.309422,
    "lat": 26.040527,
    "tel": "0591-83578359;13950298257"
  },
  {
    "id": "B024F04XD8",
    "name": "关东农家(怡丰花园店)",
    "type": "Restaurant",
    "typecode": "050108",
    "province": "福建省",
    "city": "福州市",
    "district": "台江区",
    "address": "八一七南路874号怡丰花园C座7号店",
    "lng": 119.306265,
    "lat": 26.055051,
    "tel": "13459404199"
  },
  {
    "id": "B024F04CZU",
    "name": "老福洲(西洪路店)",
    "type": "Restaurant",
    "typecode": "050100",
    "province": "福建省",
    "city": "福州市",
    "district": "鼓楼区",
    "address": "西洪路48号(斜对永辉超市湖头街车站旁)",
    "lng": 119.287122,
    "lat": 26.08616,
    "tel": "15259104247"
  },
  {
    "id": "B024F0419F",
    "name": "玉屏盖邑扁食店",
    "type": "Restaurant",
    "typecode": "050118",
    "province": "福建省",
    "city": "福州市",
    "district": "福清市",
    "address": "玉屏湖滨霞2-11号",
    "lng": 119.379188,
    "lat": 25.717527,
    "tel": "[]"
  },
  {
    "id": "B0FFJ4M2L8",
    "name": "阿弥陀佛大饭店(福州奥体店)",
    "type": "Restaurant",
    "typecode": "100103|050100",
    "province": "福建省",
    "city": "福州市",
    "district": "仓山区",
    "address": "建新镇盘屿路5号(东岭地铁站A口步行390米)",
    "lng": 119.277586,
    "lat": 26.015878,
    "tel": "0591-83339678"
  },
  {
    "id": "B024F00D49",
    "name": "福州大饭店",
    "type": "Restaurant",
    "typecode": "100103|050000",
    "province": "福建省",
    "city": "福州市",
    "district": "鼓楼区",
    "address": "斗东路1号",
    "lng": 119.304157,
    "lat": 26.073659,
    "tel": "0591-83333333"
  },
  {
    "id": "B0FFK09Z3I",
    "name": "天宫印度餐厅(福大店)",
    "type": "Restaurant",
    "typecode": "050000",
    "province": "福建省",
    "city": "福州市",
    "district": "闽侯县",
    "address": "学府北路10-25",
    "lng": 119.192301,
    "lat": 26.059902,
    "tel": "15060178871;16605912715"
  },
  {
    "id": "B0FFIK5IJQ",
    "name": "京炙烧肉料理(恒力博纳广场店)",
    "type": "Restaurant",
    "typecode": "050100",
    "province": "福建省",
    "city": "福州市",
    "district": "鼓楼区",
    "address": "北二环中路18号恒力博纳广场南区F2层",
    "lng": 119.30001,
    "lat": 26.108761,
    "tel": "0591-87576626;18259161605"
  },
  {
    "id": "B0FFIAUYLK",
    "name": "佐日咖喱",
    "type": "Restaurant",
    "typecode": "050100",
    "province": "福建省",
    "city": "福州市",
    "district": "鼓楼区",
    "address": "仙塔街145号",
    "lng": 119.306176,
    "lat": 26.082455,
    "tel": "15305900392;18659174676"
  },
  {
    "id": "B0FFHYUAN6",
    "name": "红星平潭海鲜(森林公园总店)",
    "type": "Restaurant",
    "typecode": "050119",
    "province": "福建省",
    "city": "福州市",
    "district": "平潭县",
    "address": "龙凤东路31-2号",
    "lng": 119.80174,
    "lat": 25.502852,
    "tel": "0591-88887619;13605940818"
  },
  {
    "id": "B0FFHNSN5U",
    "name": "梅邑生态园(屏西路店)",
    "type": "Restaurant",
    "typecode": "050100",
    "province": "福建省",
    "city": "福州市",
    "district": "鼓楼区",
    "address": "屏西路110号A-one运动公园内",
    "lng": 119.285571,
    "lat": 26.105347,
    "tel": "0591-87597888;0591-88885517"
  },
  {
    "id": "B0FFGT3X3R",
    "name": "米粤传(西洪店)",
    "type": "Restaurant",
    "typecode": "050103",
    "province": "福建省",
    "city": "福州市",
    "district": "鼓楼区",
    "address": "鼓西街道光荣路9号(陆庄地铁站A东北口步行360米)",
    "lng": 119.283745,
    "lat": 26.085652,
    "tel": "15980602050"
  },
  {
    "id": "B0FFGO9TLV",
    "name": "康山里弄咖啡馆",
    "type": "Restaurant",
    "typecode": "050500",
    "province": "福建省",
    "city": "福州市",
    "district": "仓山区",
    "address": "对湖街道对湖路21号(福海招待所对面)",
    "lng": 119.311647,
    "lat": 26.041139,
    "tel": "0591-88263217"
  },
  {
    "id": "B0FFGCWODO",
    "name": "阿拉丁土耳其餐厅(信和广场店)",
    "type": "Restaurant",
    "typecode": "170207|050200",
    "province": "福建省",
    "city": "福州市",
    "district": "鼓楼区",
    "address": "五四路137号信和广场商场一楼",
    "lng": 119.306846,
    "lat": 26.096567,
    "tel": "0591-87898448"
  }
]